Fid,lat,lng,road_desc,zip,timeStamp,twp,addr,outcome_of_incident,traffic_status,traffic_occured_by,area_accident_occured,Label
157.240.2.35-10.42.0.151-443-34508-6,40.2978759,-75.5812935,REINDEER CT & DEAD END;  NEW HANOVER; Station 332; 2022-12-10 @ 17:10:52;,19525,10-12-22 17:10,NEW HANOVER,REINDEER CT & DEAD END,Minor Injury,High,Collision with roadside objects,Residential areas,0
172.217.10.99-10.42.0.211-443-49819-6,40.2580614,-75.2646799,BRIAR PATH & WHITEMARSH LN;  HATFIELD TOWNSHIP; Station 345; 2022-12-10 @ 17:29:21;,19446,10-12-22 17:29,HATFIELD TOWNSHIP,BRIAR PATH & WHITEMARSH LN,Death,Medium,Vehicle with vehicle collision,Office areas,1
172.217.12.174-10.42.0.42-443-55995-6,40.1211818,-75.3519752,HAWS AVE; NORRISTOWN; 2022-12-10 @ 14:39:21-Station:STA27;,19401,10-12-22 14:39,NORRISTOWN,HAWS AVE,Greviously Injured,Very High,Vehicle with vehicle collision,  Recreational areas,2
172.217.7.163-10.42.0.42-443-40747-6,40.116153,-75.343513,AIRY ST & SWEDE ST;  NORRISTOWN; Station 308A; 2022-12-10 @ 16:47:36;,19401,10-12-22 16:47,NORRISTOWN,AIRY ST & SWEDE ST,Minor Injury,High,Vehicle with vehicle collision,Office areas,0
183.79.250.123-10.42.0.211-443-36972-6,40.251492,-75.6033497,CHERRYWOOD CT & DEAD END;  LOWER POTTSGROVE; Station 329; 2022-12-10 @ 16:56:52;,,10-12-22 16:56,LOWER POTTSGROVE,CHERRYWOOD CT & DEAD END,Death,Medium,Rollover, Industrial areas,1
172.217.10.67-10.42.0.211-443-41249-6,40.2534732,-75.283245,CANNON AVE & W 9TH ST;  LANSDALE; Station 345; 2022-12-10 @ 15:39:04;,19446,10-12-22 15:39,LANSDALE,CANNON AVE & W 9TH ST,Minor Injury,High,Vehicle with vehicle collision,Office areas,0
10.42.0.151-103.7.30.118-60374-80-6,40.1821111,-75.1277951,LAUREL AVE & OAKDALE AVE;  HORSHAM; Station 352; 2022-12-10 @ 16:46:48;,19044,10-12-22 16:46,HORSHAM,LAUREL AVE & OAKDALE AVE,Death,High,Vehicle with vehicle collision,Residential areas,1
10.42.0.211-106.11.94.27-57975-443-6,40.2172859,-75.405182,COLLEGEVILLE RD & LYWISKI RD;  SKIPPACK; Station 336; 2022-12-10 @ 16:17:05;,19426,10-12-22 16:17,SKIPPACK,COLLEGEVILLE RD & LYWISKI RD,Greviously Injured,Medium,Vehicle with vehicle collision,Residential areas,2
10.42.0.151-10.42.0.1-37556-53-17,40.2890267,-75.3995896,MAIN ST & OLD SUMNEYTOWN PIKE;  LOWER SALFORD; Station 344; 2022-12-10 @ 16:51:42;,19438,10-12-22 16:51,LOWER SALFORD,MAIN ST & OLD SUMNEYTOWN PIKE,Minor Injury,High,Collision with pedestrians, Industrial areas,0
10.42.0.211-77.234.42.92-58992-443-6,40.1023985,-75.2914577,BLUEROUTE  & RAMP I476 NB TO CHEMICAL RD; PLYMOUTH; 2022-12-10 @ 17:35:41;,19462,10-12-22 17:35,PLYMOUTH,BLUEROUTE  & RAMP I476 NB TO CHEMICAL RD,Death,High,Vehicle with vehicle collision,Residential areas,1
10.42.0.211-23.77.88.53-43881-443-6,40.2319898,-75.2518915,RT202 PKWY & KNAPP RD; MONTGOMERY; 2022-12-10 @ 17:33:50;,,10-12-22 17:33,MONTGOMERY,RT202 PKWY & KNAPP RD,Greviously Injured,Medium,Collision with roadside objects,Residential areas,2
172.217.12.170-10.42.0.211-443-35387-6,40.0841613,-75.3083857,BROOK RD & COLWELL LN; PLYMOUTH; 2022-12-10 @ 16:32:10;,19428,10-12-22 16:32,PLYMOUTH,BROOK RD & COLWELL LN,Death,High,Vehicle with vehicle collision,Office areas,1
203.205.158.60-10.42.0.211-80-44252-6,40.1741312,-75.0984907,BYBERRY AVE & S WARMINSTER RD; UPPER MORELAND; 2022-12-10 @ 17:15:49;,19040,10-12-22 17:15,UPPER MORELAND,BYBERRY AVE & S WARMINSTER RD,Minor Injury,Medium,Rollover,Office areas,0
10.42.0.211-104.192.110.245-49746-443-6,40.062974,-75.135914,OLD YORK RD & VALLEY RD; CHELTENHAM; 2022-12-10 @ 17:12:47;,19027,10-12-22 17:12,CHELTENHAM,OLD YORK RD & VALLEY RD,Death,High,Vehicle with vehicle collision,Office areas,1
203.205.158.62-10.42.0.211-80-49724-6,40.0972222,-75.3761952,SCHUYLKILL EXPY & CROTON RD UNDERPASS; UPPER MERION; 2022-12-10 @ 17:09:49;,,10-12-22 17:09,UPPER MERION,SCHUYLKILL EXPY & CROTON RD UNDERPASS,Greviously Injured,High,Vehicle with vehicle collision,Office areas,2
10.42.0.211-23.206.173.182-50896-80-6,40.2237777,-75.2353993,STUMP RD & WITCHWOOD DR; MONTGOMERY; 2022-12-10 @ 17:31:00;,18936,10-12-22 17:31,MONTGOMERY,STUMP RD & WITCHWOOD DR,Minor Injury,Medium,Vehicle with vehicle collision,Office areas,0
203.130.53.126-10.42.0.211-80-52261-6,40.2432578,-75.2865516,SUSQUEHANNA AVE & W MAIN ST;  LANSDALE; Station 345B; 2022-12-10 @ 17:42:44;,19446,10-12-22 17:42,LANSDALE,SUSQUEHANNA AVE & W MAIN ST,Death,High,Vehicle with vehicle collision,Office areas,1
10.42.0.1-10.42.0.42-53-19669-17,40.3121807,-75.5742598,CHARLOTTE ST & MILES RD;  NEW HANOVER; Station 332; 2022-12-10 @ 17:41:54;,19525,10-12-22 17:41,NEW HANOVER,CHARLOTTE ST & MILES RD,Minor Injury,High,Vehicle with vehicle collision,Office areas,0
10.42.0.151-115.239.210.141-53922-80-6,40.114239,-75.338508,PENN ST & ARCH ST;  NORRISTOWN; Station 308A; 2022-12-10 @ 17:43:29;,19401,10-12-22 17:43,NORRISTOWN,PENN ST & ARCH ST,Death,Medium,Collision with roadside objects,Residential areas,1
10.42.0.211-104.192.110.245-37965-80-6,40.2093369,-75.1352655,COUNTY LINE RD & WILLOW DR; HORSHAM; 2022-12-10 @ 17:45:23;,18974,10-12-22 17:45,HORSHAM,COUNTY LINE RD & WILLOW DR,Greviously Injured,High,Vehicle with vehicle collision,Residential areas,2
10.42.0.211-10.42.0.1-59776-53-17,40.114239,-75.338508,PENN ST & ARCH ST; NORRISTOWN; 2022-12-10 @ 17:43:45;,19401,10-12-22 17:43,NORRISTOWN,PENN ST & ARCH ST,Minor Injury,Medium,Vehicle with vehicle collision,Other,0
10.42.0.211-10.42.0.1-51238-53-17,40.1179476,-75.2098476,CHURCH RD & REDCOAT DR; WHITEMARSH; 2022-12-10 @ 17:53:22;,19031,10-12-22 17:53,WHITEMARSH,CHURCH RD & REDCOAT DR,Greviously Injured,High,Collision with roadside objects, Church areas,2
10.42.0.42-104.97.95.172-57315-80-6,40.1990064,-75.3000584,LILAC CT & PRIMROSE DR; UPPER GWYNEDD; 2022-12-10 @ 17:59:24-Station:STA80;,19446,10-12-22 17:59,UPPER GWYNEDD,LILAC CT & PRIMROSE DR,Minor Injury,High,Collision with roadside objects,  Recreational areas,0
205.185.216.10-10.42.0.42-80-52837-6,40.1433257,-75.422819,RT422  & PAWLINGS RD OVERPASS; LOWER PROVIDENCE; 2022-12-10 @ 18:00:38;,,10-12-22 18:00,LOWER PROVIDENCE,RT422  & PAWLINGS RD OVERPASS,Death,Medium,Vehicle with vehicle collision, Industrial areas,1
10.42.0.211-108.174.10.10-50511-443-6,40.1532684,-75.1895576,SUMMIT AVE & RT309 UNDERPASS; UPPER DUBLIN; 2022-12-10 @ 17:58:22;,,10-12-22 17:58,UPPER DUBLIN,SUMMIT AVE & RT309 UNDERPASS,Minor Injury,High,Vehicle with vehicle collision,Residential areas,0
182.254.5.234-10.42.0.211-80-43031-6,40.1330371,-75.4084631,SHANNONDELL DR & SHANNONDELL BLVD;  LOWER PROVIDENCE; Station 322A; 2022-12-10 @ 18:02:02;,19403,10-12-22 18:02,LOWER PROVIDENCE,SHANNONDELL DR & SHANNONDELL BLVD,Death,High,Vehicle with vehicle collision,Residential areas,1
10.42.0.42-106.39.169.66-57125-80-6,40.1552833,-75.2642296,PENLLYN BLUE BELL PIKE & VILLAGE CIR;  WHITPAIN; Station 385; 2022-12-10 @ 18:02:38;,19422,10-12-22 18:02,WHITPAIN,PENLLYN BLUE BELL PIKE & VILLAGE CIR,Greviously Injured,Medium,Vehicle with vehicle collision,Office areas,2
10.42.0.151-54.239.17.113-49089-443-6,40.0289031,-75.3518224,EDENTON PL & DURHAM DR; DELAWARE COUNTY; 2022-12-10 @ 18:05:19-Station:STA23;,19085,10-12-22 18:05,DELAWARE COUNTY,EDENTON PL & DURHAM DR,Minor Injury,High,Collision with roadside objects,  Market areas,0
172.217.9.238-10.42.0.151-443-48040-6,40.0972222,-75.3761952,SCHUYLKILL EXPY & WEADLEY RD OVERPASS; UPPER MERION; 2022-12-10 @ 18:05:39;,,10-12-22 18:05,UPPER MERION,SCHUYLKILL EXPY & WEADLEY RD OVERPASS,Death,Medium,Vehicle with vehicle collision,Unknown,1
10.42.0.42-119.146.74.33-40622-443-6,40.2093369,-75.1352655,COUNTY LINE RD & WILLOW DR; HORSHAM; 2022-12-10 @ 18:10:40;,18974,10-12-22 18:10,HORSHAM,COUNTY LINE RD & WILLOW DR,Greviously Injured,High,Vehicle with vehicle collision, Industrial areas,2
10.42.0.211-10.42.0.1-1863-53-17,40.0972222,-75.3761952,SCHUYLKILL EXPY & WEADLEY RD OVERPASS; UPPER MERION; 2022-12-10 @ 18:07:01;,,10-12-22 18:07,UPPER MERION,SCHUYLKILL EXPY & WEADLEY RD OVERPASS,Death,High,Vehicle with vehicle collision,Residential areas,1
10.42.0.151-10.42.0.1-31323-53-17,40.300736,-75.3319733,CORNWALL TER & LIONS GATE CIR;  FRANCONIA; Station 339; 2022-12-10 @ 18:09:49;,18964,10-12-22 18:09,FRANCONIA,CORNWALL TER & LIONS GATE CIR,Minor Injury,Medium,Vehicle with vehicle collision,Residential areas,0
10.42.0.151-10.42.0.1-60240-53-17,40.129398,-75.3322134,PINE ST & W ROBERTS ST;  NORRISTOWN; Station 308A; 2022-12-10 @ 18:17:07;,19401,10-12-22 18:17,NORRISTOWN,PINE ST & W ROBERTS ST,Greviously Injured,High,Vehicle with vehicle collision,Other,2
10.42.0.211-10.42.0.1-26886-53-17,40.0993621,-75.1500348,E GLENSIDE AVE & S KESWICK AVE; CHELTENHAM; 2022-12-10 @ 18:21:43;,19038,10-12-22 18:21,CHELTENHAM,E GLENSIDE AVE & S KESWICK AVE,Minor Injury,Medium,Vehicle with vehicle collision,Residential areas,0
10.42.0.211-10.42.0.1-8443-53-17,40.2212266,-75.2887369,MORRIS RD & MUHLENBURG DR; UPPER GWYNEDD; 2022-12-10 @ 18:23:13;,,10-12-22 18:23,UPPER GWYNEDD,MORRIS RD & MUHLENBURG DR,Death,High,Collision with roadside objects,Rural village areas,1
172.217.10.142-10.42.0.42-443-51231-6,40.0738642,-75.3167972,MOOREHEAD AVE & FRONT ST; WEST CONSHOHOCKEN; 2022-12-10 @ 18:20:28;,19428,10-12-22 18:20,WEST CONSHOHOCKEN,MOOREHEAD AVE & FRONT ST,Minor Injury,High,Vehicle with vehicle collision,Rural village areas,0
172.217.10.238-10.42.0.42-443-33164-6,40.1617316,-75.1510554,DRESHER RD & WELSH RD; HORSHAM; 2022-12-10 @ 18:23:11;,19044,10-12-22 18:23,HORSHAM,DRESHER RD & WELSH RD,Death,Medium,Collision with pedestrians,Office areas,1
172.217.9.234-10.42.0.211-443-49920-6,40.0667184,-75.307176,CONSHOHOCKEN STATE RD;  WEST CONSHOHOCKEN; Station 313A; 2022-12-10 @ 18:29:54;,,10-12-22 18:29,WEST CONSHOHOCKEN,CONSHOHOCKEN STATE RD,Greviously Injured,High,Collision with roadside objects,Residential areas,2
10.42.0.211-121.12.98.63-47436-80-6,40.0655304,-75.3078284,CONSHOHOCKEN STATE RD & MERION HILL LN; WEST CONSHOHOCKEN; 2022-12-10 @ 18:30:41;,19428,10-12-22 18:30,WEST CONSHOHOCKEN,CONSHOHOCKEN STATE RD & MERION HILL LN,Minor Injury,High,Collision with roadside objects,Residential areas,0
183.79.17.108-10.42.0.151-443-60432-6,40.1042063,-75.3676652,HAMPTON RD & BELMONT RD; UPPER MERION; 2022-12-10 @ 18:32:25-Station:STA49;,19406,10-12-22 18:32,UPPER MERION,HAMPTON RD & BELMONT RD,Death,Medium,Vehicle with vehicle collision, Outside rural areas,1
10.42.0.211-119.146.74.31-42055-443-6,40.1227798,-75.2672413,SPARANGO LN & MELISSA WAY;  PLYMOUTH; Station 308; 2022-12-10 @ 18:38:18;,19462,10-12-22 18:38,PLYMOUTH,SPARANGO LN & MELISSA WAY,Greviously Injured,High,Rollover,Residential areas,2
10.42.0.151-10.42.0.1-10790-53-17,40.091055,-75.3843648,ALLENDALE RD & WILLS BLVD; UPPER MERION; 2022-12-10 @ 18:37:00;,19406,10-12-22 18:37,UPPER MERION,ALLENDALE RD & WILLS BLVD,Death,High,Vehicle with vehicle collision, Church areas,1
157.240.2.35-10.42.0.151-443-36936-6,40.0249667,-75.2829046,ROSEMONT AVE & DEAD END;  LOWER MERION; Station 313; 2022-12-10 @ 18:43:07;,,10-12-22 18:43,LOWER MERION,ROSEMONT AVE & DEAD END,Minor Injury,Medium,Vehicle with vehicle collision,Office areas,0
172.217.11.37-10.42.0.151-443-52587-6,40.1257391,-75.339822,W WOOD ST & MARKLEY ST; NORRISTOWN; 2022-12-10 @ 18:47:18;,19401,10-12-22 18:47,NORRISTOWN,W WOOD ST & MARKLEY ST,Greviously Injured,High,Vehicle with vehicle collision,Office areas,2
10.42.0.151-14.17.42.57-55488-80-6,40.2249227,-75.5280446,LINFIELD TRAPPE RD;  LIMERICK; Station 324A; 2022-12-10 @ 18:50:37;,19468,10-12-22 18:50,LIMERICK,LINFIELD TRAPPE RD,Minor Injury,Medium,Vehicle with vehicle collision,Office areas,0
10.42.0.151-10.42.0.1-47224-53-17,40.2249227,-75.5280446,LINFIELD TRAPPE RD; LIMERICK; 2022-12-10 @ 18:50:23-Station:STA51;,19468,10-12-22 18:50,LIMERICK,LINFIELD TRAPPE RD,Greviously Injured,High,Vehicle with vehicle collision,Other,2
172.217.10.142-10.42.0.151-443-56854-6,40.2249227,-75.5280446,AUTO PARK BLVD & LINFIELD TRAPPE RD; LIMERICK; 2022-12-10 @ 18:51:34;,19468,10-12-22 18:51,LIMERICK,AUTO PARK BLVD & LINFIELD TRAPPE RD,Minor Injury,High,Vehicle with vehicle collision,Other,0
172.217.6.206-10.42.0.151-443-56670-6,40.2309343,-75.5221245,LINFIELD TRAPPE RD & RAMP N LEWIS RD TO RT422 EB; LIMERICK; 2022-12-10 @ 18:51:01;,19468,10-12-22 18:51,LIMERICK,LINFIELD TRAPPE RD & RAMP N LEWIS RD TO RT422 EB,Death,Medium,Vehicle with vehicle collision,Residential areas,1
10.42.0.42-115.239.210.141-38203-443-6,40.251523,-75.329557,DOCK DR & DEAD END;  TOWAMENCIN; Station 345B; 2022-12-10 @ 18:59:50;,,10-12-22 18:59,TOWAMENCIN,DOCK DR & DEAD END,Minor Injury,High,Vehicle with vehicle collision,Other,0
172.217.10.45-10.42.0.151-443-47718-6,40.1653934,-75.2829046,HARROW LN & DEAD END; WHITPAIN; 2022-12-10 @ 18:56:51-Station:STA33;,,10-12-22 18:56,WHITPAIN,HARROW LN & DEAD END,Death,Medium,Collision with roadside objects,Other,1
172.217.11.3-10.42.0.151-443-50931-6,40.2313745,-75.2797803,CHURCH RD & E HANCOCK ST; LANSDALE; 2022-12-10 @ 19:06:07;,19446,10-12-22 19:06,LANSDALE,CHURCH RD & E HANCOCK ST,Greviously Injured,High,Vehicle with vehicle collision,Other,2
173.241.242.143-10.42.0.151-443-39504-6,40.3209665,-75.6113493,WILSON AVE & E PHILADELPHIA AVE;  DOUGLASS; Station 332; 2022-12-10 @ 19:07:27;,19525,10-12-22 19:07,DOUGLASS,WILSON AVE & E PHILADELPHIA AVE,Minor Injury,High,Vehicle with vehicle collision,Other,0
10.42.0.211-10.42.0.1-28885-53-17,40.0512834,-75.2968515,LAFAYETTE RD & CONSHOHOCKEN STATE RD; LOWER MERION; 2022-12-10 @ 19:09:42-Station:STA24;,19010,10-12-22 19:09,LOWER MERION,LAFAYETTE RD & CONSHOHOCKEN STATE RD,Death,Medium,Vehicle with vehicle collision,Other,1
172.217.10.78-10.42.0.151-443-34931-6,40.2432612,-75.2960797,W MT VERNON ST & S MITCHELL AVE; LANSDALE; 2022-12-10 @ 19:08:43;,19446,10-12-22 19:08,LANSDALE,W MT VERNON ST & S MITCHELL AVE,Greviously Injured,High,Vehicle with vehicle collision,Other,2
192.229.173.173-10.42.0.211-80-55312-6,40.1568468,-75.1019942,YORK RD & RR CROSSING;  UPPER MORELAND; Station 381; 2022-12-10 @ 19:18:31;,,10-12-22 19:18,UPPER MORELAND,YORK RD & RR CROSSING,Death,High,Collision with pedestrians, Church areas,1
180.149.153.234-10.42.0.211-80-53928-6,40.1330371,-75.4084631,SHANNONDELL DR & SHANNONDELL BLVD;  LOWER PROVIDENCE; Station 322A; 2022-12-10 @ 19:12:13;,19403,10-12-22 19:12,LOWER PROVIDENCE,SHANNONDELL DR & SHANNONDELL BLVD,Minor Injury,Medium,Vehicle with vehicle collision,Other,0
10.42.0.211-23.206.173.182-47900-80-6,40.089973,-75.1410849,FERNBROOK AVE & MAPLE AVE;  CHELTENHAM; Station 358A; 2022-12-10 @ 19:15:10;,19095,10-12-22 19:15,CHELTENHAM,FERNBROOK AVE & MAPLE AVE,Greviously Injured,High,Vehicle with vehicle collision, Industrial areas,2
172.217.10.234-10.42.0.42-443-53320-6,40.2470021,-75.6525972,KING ST & N YORK ST;  POTTSTOWN; Station 329; 2022-12-10 @ 19:17:13;,19464,10-12-22 19:17,POTTSTOWN,KING ST & N YORK ST,Minor Injury,High,Vehicle with vehicle collision,Residential areas,0
172.217.6.234-10.42.0.211-443-42890-6,40.0818005,-75.2531616,RIDGE PIKE & CHURCH RD; WHITEMARSH; 2022-12-10 @ 19:19:19;,19444,10-12-22 19:19,WHITEMARSH,RIDGE PIKE & CHURCH RD,Death,Medium,Vehicle with vehicle collision,Other,1
172.217.12.142-10.42.0.151-443-43981-6,40.0203725,-75.3092584,W MONTGOMERY AVE & PENNSWOOD RD; LOWER MERION; 2022-12-10 @ 19:25:22;,19041,10-12-22 19:25,LOWER MERION,W MONTGOMERY AVE & PENNSWOOD RD,Minor Injury,High,Vehicle with vehicle collision,Office areas,0
10.42.0.151-54.230.38.124-47520-80-6,40.2306331,-75.2785377,CEDAR ST & E HANCOCK ST; LANSDALE; 2022-12-10 @ 19:06:07;,19446,10-12-22 19:06,LANSDALE,CEDAR ST & E HANCOCK ST,Death,Medium,Vehicle with vehicle collision, Industrial areas,1
192.229.163.180-10.42.0.151-443-58369-6,40.1173446,-75.2111725,FAIRFIELD DR & FARMAR LN;  WHITEMARSH; Station 318; 2022-12-10 @ 19:23:08;,19031,10-12-22 19:23,WHITEMARSH,FAIRFIELD DR & FARMAR LN,Greviously Injured,Medium,Collision with roadside objects, Industrial areas,2
10.42.0.1-10.42.0.42-53-28084-17,40.2679249,-75.3143823,CLEMENS RD & FORTY FOOT RD;  HATFIELD TOWNSHIP; Station 345; 2022-12-10 @ 19:25:07;,19440,10-12-22 19:25,HATFIELD TOWNSHIP,CLEMENS RD & FORTY FOOT RD,Minor Injury,High,Vehicle with vehicle collision,Other,0
10.42.0.151-31.13.80.52-38557-80-6,40.2456734,-75.2796667,BROAD ST & E 6TH ST;  LANSDALE; Station 345; 2022-12-10 @ 19:22:25;,19446,10-12-22 19:22,LANSDALE,BROAD ST & E 6TH ST,Greviously Injured,High,Vehicle with vehicle collision, Hospital areas,2
172.217.12.174-10.42.0.151-443-56919-6,40.1199455,-75.3383214,DEKALB ST & E ELM ST;  NORRISTOWN; Station 308A; 2022-12-10 @ 19:21:47;,19401,10-12-22 19:21,NORRISTOWN,DEKALB ST & E ELM ST,Minor Injury,Medium,Vehicle with vehicle collision,Office areas,0
10.42.0.211-104.192.110.245-55562-443-6,40.105308,-75.341987,4TH ST & DEPOT ST;  BRIDGEPORT; Station 317; 2022-12-10 @ 19:35:47;,19405,10-12-22 19:35,BRIDGEPORT,4TH ST & DEPOT ST,Greviously Injured,High,Vehicle with vehicle collision, Church areas,2
10.42.0.211-10.42.0.1-23122-53-17,40.2890267,-75.3995896,MAIN ST & OLD SUMNEYTOWN PIKE;  LOWER SALFORD; Station 344; 2022-12-10 @ 19:38:31;,19438,10-12-22 19:38,LOWER SALFORD,MAIN ST & OLD SUMNEYTOWN PIKE,Minor Injury,High,Vehicle with vehicle collision, Hospital areas,0
10.42.0.211-64.71.142.110-46737-80-6,40.245731,-75.3416869,TOWAMENCIN AVE & SUMNEYTOWN PIKE;  TOWAMENCIN; Station 345B; 2022-12-10 @ 19:43:24;,19438,10-12-22 19:43,TOWAMENCIN,TOWAMENCIN AVE & SUMNEYTOWN PIKE,Death,Medium,Vehicle with vehicle collision,Office areas,1
192.229.173.173-10.42.0.42-80-38028-6,40.1330371,-75.4084631,SHANNONDELL DR & SHANNONDELL BLVD;  LOWER PROVIDENCE; Station 322A; 2022-12-10 @ 19:49:37;,19403,10-12-22 19:49,LOWER PROVIDENCE,SHANNONDELL DR & SHANNONDELL BLVD,Minor Injury,High,Vehicle with vehicle collision,Other,0
10.42.0.1-10.42.0.42-53-7601-17,40.1546593,-75.2215435,BUTLER AVE & N RIDGE AVE;  AMBLER; Station 351; 2022-12-10 @ 19:54:45;,19002,10-12-22 19:54,AMBLER,BUTLER AVE & N RIDGE AVE,Death,High,Vehicle with vehicle collision,Office areas,1
180.149.153.68-10.42.0.211-80-57817-6,40.0249667,-75.2829046,AVIGNON DR & DEAD END; LOWER MERION; 2022-12-10 @ 20:01:29-Station:STA24;,,10-12-22 20:01,LOWER MERION,AVIGNON DR & DEAD END,Greviously Injured,Medium,Rollover,Office areas,2
140.205.250.8-10.42.0.151-443-41073-6,39.9867698,-75.2754335,LLOYD LN & DRAYTON LN;  LOWER MERION; Station 313; 2022-12-10 @ 20:05:27;,19096,10-12-22 20:05,LOWER MERION,LLOYD LN & DRAYTON LN,Minor Injury,High,Vehicle with vehicle collision,Other,0
10.42.0.42-46.150.167.172-46360-20408-17,40.2537881,-75.2164375,DELMAR CT & CLAREMONT DR;  MONTGOMERY; Station 345A; 2022-12-10 @ 20:10:27;,19454,10-12-22 20:10,MONTGOMERY,DELMAR CT & CLAREMONT DR,Death,Medium,Vehicle with vehicle collision,Office areas,1
10.42.0.211-64.71.142.110-44366-443-6,40.2450058,-75.5930476,HIGH ST & BROWN ST;  LOWER POTTSGROVE; Station 329; 2022-12-10 @ 20:09:47;,19464,10-12-22 20:09,LOWER POTTSGROVE,HIGH ST & BROWN ST,Greviously Injured,Medium,Vehicle with vehicle collision,Residential areas,2
10.42.0.151-10.42.0.1-43876-53-17,40.295271,-75.3284004,COWPATH RD & MEADOW WOOD LN;  FRANCONIA; Station 339; 2022-12-10 @ 20:06:36;,18964,10-12-22 20:06,FRANCONIA,COWPATH RD & MEADOW WOOD LN,Death,High,Collision with roadside objects,Other,1
10.42.0.211-52.94.232.33-44346-443-6,40.2048367,-75.2228211,WELSH RD & LOWER STATE RD; HORSHAM; 2022-12-10 @ 20:07:25;,19002,10-12-22 20:07,HORSHAM,WELSH RD & LOWER STATE RD,Minor Injury,High,Vehicle with vehicle collision,Office areas,0
10.42.0.211-23.217.155.120-35929-80-6,40.2442013,-75.582403,HIGH ST & S PARK RD; LOWER POTTSGROVE; 2022-12-10 @ 20:24:17;,19464,10-12-22 20:24,LOWER POTTSGROVE,HIGH ST & S PARK RD,Greviously Injured,Medium,Vehicle with vehicle collision,Office areas,2
180.149.136.194-10.42.0.211-443-49674-6,40.2315111,-75.6545599,HANOVER ST & E URNER ST;  CHESTER COUNTY; Station 3A84; 2022-12-10 @ 20:26:35;,19465,10-12-22 20:26,CHESTER COUNTY,HANOVER ST & E URNER ST,Minor Injury,High,Vehicle with vehicle collision,Office areas,0
201.92.16.176-10.42.0.151-33827-43477-17,40.1142023,-75.3268041,NEW HOPE ST & CEDAR LN;  NORRISTOWN; Station 308A; 2022-12-10 @ 20:26:14;,19401,10-12-22 20:26,NORRISTOWN,NEW HOPE ST & CEDAR LN,Death,High,Collision with roadside objects,Other,1
172.217.11.14-10.42.0.151-443-58035-6,40.0039548,-75.2207009,BELMONT AVE & E CITY AVE; LOWER MERION; 2022-12-10 @ 20:36:49;,19004,10-12-22 20:36,LOWER MERION,BELMONT AVE & E CITY AVE,Minor Injury,Medium,Vehicle with vehicle collision, Church areas,0
172.217.3.110-10.42.0.42-443-39972-6,40.2906932,-75.5766612,SWAMP PIKE & ROMIG RD;  NEW HANOVER; Station 332; 2022-12-10 @ 20:45:14;,19525,10-12-22 20:45,NEW HANOVER,SWAMP PIKE & ROMIG RD,Death,High,Vehicle with vehicle collision, Industrial areas,1
203.130.53.126-10.42.0.211-80-36855-6,40.0074347,-75.2489886,MEADOW LN & MONTGOMERY AVE; LOWER MERION; 2022-12-10 @ 20:43:44-Station:STA28;,19066,10-12-22 20:43,LOWER MERION,MEADOW LN & MONTGOMERY AVE,Greviously Injured,High,Vehicle with vehicle collision,Office areas,2
169.47.42.215-10.42.0.211-443-41852-6,40.2304548,-75.6339815,WORTH BLVD & TYSON ST;  CHESTER COUNTY; Station 3A84; 2022-12-10 @ 20:50:14;,19465,10-12-22 20:50,CHESTER COUNTY,WORTH BLVD & TYSON ST,Minor Injury,Medium,Vehicle with vehicle collision, Church areas,0
172.217.11.46-10.42.0.211-443-36943-6,40.0348666,-75.3276061,MONTGOMERY AVE & THORNBROOK AVE;  LOWER MERION; Station 313; 2022-12-10 @ 20:49:08;,19010,10-12-22 20:49,LOWER MERION,MONTGOMERY AVE & THORNBROOK AVE,Minor Injury,High,Collision with roadside objects,Office areas,0
222.73.28.96-10.42.0.211-80-36855-6,40.0167386,-75.2651596,PENN VALLEY RD & MANOR RD;  LOWER MERION; Station 313; 2022-12-10 @ 20:53:30;,19072,10-12-22 20:53,LOWER MERION,PENN VALLEY RD & MANOR RD,Death,Medium,Vehicle with vehicle collision,Office areas,1
10.42.0.211-77.234.42.92-39042-443-6,40.4142488,-75.5090155,BLOMMER DR & GRAVEL PIKE; UPPER HANOVER; 2022-12-10 @ 21:01:26-Station:STA38;,18041,10-12-22 21:01,UPPER HANOVER,BLOMMER DR & GRAVEL PIKE,Greviously Injured,High,Vehicle with vehicle collision,Residential areas,2
10.42.0.211-121.12.98.78-41539-80-6,40.0809133,-75.2026651,STENTON AVE & E EVERGREEN AVE;  SPRINGFIELD; Station 311; 2022-12-10 @ 21:10:36;,19038,10-12-22 21:10,SPRINGFIELD,STENTON AVE & E EVERGREEN AVE,Death,High,Vehicle with vehicle collision,Office areas,1
172.217.10.129-10.42.0.151-443-38167-17,40.2372576,-75.2204062,HILLSIDE CT & NESHAMINY FALLS CIR;  MONTGOMERY; Station 345A; 2022-12-10 @ 21:12:35;,19454,10-12-22 21:12,MONTGOMERY,HILLSIDE CT & NESHAMINY FALLS CIR,Minor Injury,Medium,Vehicle with vehicle collision,Residential areas,0
152.163.56.2-10.42.0.211-443-59912-6,40.2500156,-75.5921595,N PLEASANT VIEW RD & WELSH DR; LOWER POTTSGROVE; 2022-12-10 @ 21:19:21;,19464,10-12-22 21:19,LOWER POTTSGROVE,N PLEASANT VIEW RD & WELSH DR,Greviously Injured,High,Vehicle with vehicle collision,Office areas,2
10.42.0.1-10.42.0.42-53-3226-17,40.2469315,-75.6439204,CHESTNUT ST & N FRANKLIN ST; POTTSTOWN; 2022-12-10 @ 21:24:47-Station:STA69;,19464,10-12-22 21:24,POTTSTOWN,CHESTNUT ST & N FRANKLIN ST,Minor Injury,Medium,Collision with pedestrians,Office areas,0
10.42.0.151-123.125.115.190-41314-80-6,40.230284,-75.3540007,BUSTARD RD & KRIEBEL RD; TOWAMENCIN; 2022-12-10 @ 21:31:19;,19438,10-12-22 21:31,TOWAMENCIN,BUSTARD RD & KRIEBEL RD,Death,Medium,Vehicle with vehicle collision,Other,1
10.42.0.1-10.42.0.42-53-10096-17,40.085487,-75.0977084,FOX CHASE RD & LOS ANGELES AVE; ROCKLEDGE; 2022-12-10 @ 21:36:01-Station:STA9;,19046,10-12-22 21:36,ROCKLEDGE,FOX CHASE RD & LOS ANGELES AVE,Minor Injury,High,Vehicle with vehicle collision,Other,0
202.77.129.161-10.42.0.42-80-44532-6,40.2344178,-75.3513217,BUSTARD RD & OLD MORRIS RD; TOWAMENCIN; 2022-12-10 @ 21:31:19;,19438,10-12-22 21:31,TOWAMENCIN,BUSTARD RD & OLD MORRIS RD,Death,High,Collision with roadside objects,Residential areas,1
10.42.0.42-14.29.93.243-56301-80-6,40.0830785,-75.1011171,SHELMIRE ST & CEDAR RD; ABINGTON; 2022-12-10 @ 21:47:14;,19027,10-12-22 21:47,ABINGTON,SHELMIRE ST & CEDAR RD,Greviously Injured,Medium,Vehicle with vehicle collision, Church areas,2
172.217.6.238-10.42.0.211-443-44606-6,40.2763043,-75.5650236,SWAMP PIKE & SANATOGA RD; NEW HANOVER; 2022-12-10 @ 21:56:14;,19525,10-12-22 21:56,NEW HANOVER,SWAMP PIKE & SANATOGA RD,Minor Injury,High,Vehicle with vehicle collision, Church areas,0
10.42.0.42-64.71.142.120-52446-80-6,40.0953195,-75.1934818,CHELTENHAM AVE & DELPHINE RD; SPRINGFIELD; 2022-12-10 @ 21:58:11;,19038,10-12-22 21:58,SPRINGFIELD,CHELTENHAM AVE & DELPHINE RD,Greviously Injured,High,Collision with pedestrians,Residential areas,2
10.42.0.211-10.42.0.1-7592-53-17,40.1514759,-75.3966243,MARK LN & IVY CIR;  LOWER PROVIDENCE; Station 322; 2022-12-10 @ 22:03:14;,19403,10-12-22 22:03,LOWER PROVIDENCE,MARK LN & IVY CIR,Minor Injury,Medium,Vehicle with vehicle collision,Office areas,0
172.217.10.142-10.42.0.42-443-35835-6,40.127611,-75.3799147,HEMLOCK RD & SHIRLEY LN;  WEST NORRITON; Station 308B; 2022-12-10 @ 22:24:21;,19403,10-12-22 22:24,WEST NORRITON,HEMLOCK RD & SHIRLEY LN,Greviously Injured,High,Vehicle with vehicle collision,Office areas,2
10.42.0.211-64.71.142.124-41915-443-6,40.284455,-75.574528,CEDAR LN & WILLOW LN;  NEW HANOVER; Station 332; 2022-12-10 @ 22:22:38;,19525,10-12-22 22:22,NEW HANOVER,CEDAR LN & WILLOW LN,Minor Injury,High,Collision with pedestrians,Residential areas,0
172.217.6.228-10.42.0.211-443-49133-6,40.1201276,-75.3501929,GEORGE ST & HAWS ALY;  NORRISTOWN; Station 308A; 2022-12-10 @ 22:29:17;,19401,10-12-22 22:29,NORRISTOWN,GEORGE ST & HAWS ALY,Death,Medium,Collision with pedestrians, Church areas,1
180.149.136.194-10.42.0.211-443-35866-6,40.1508958,-75.1274376,FITZWATERTOWN RD & BARTRAM RD;  UPPER MORELAND; Station 381; 2022-12-10 @ 22:27:24;,19090,10-12-22 22:27,UPPER MORELAND,FITZWATERTOWN RD & BARTRAM RD,Minor Injury,High,Collision with pedestrians,Other,0
10.42.0.211-123.125.29.138-35716-80-6,40.1825726,-75.5406694,ADAMS ST & WALNUT ST; ROYERSFORD; 2022-12-10 @ 22:35:51-Station:STA98;,19468,10-12-22 22:35,ROYERSFORD,ADAMS ST & WALNUT ST,Death,Medium,Collision with roadside objects,Office areas,1
10.42.0.211-104.88.89.135-34966-443-6,40.060048,-75.097217,ASHBOURNE RD & ROWLAND AVE; CHELTENHAM; 2022-12-10 @ 22:41:53;,19012,10-12-22 22:41,CHELTENHAM,ASHBOURNE RD & ROWLAND AVE,Greviously Injured,Medium,Vehicle with vehicle collision,Other,2
172.217.9.238-10.42.0.211-443-32870-6,40.2449124,-75.6443631,HIGH ST & S FRANKLIN ST;  POTTSTOWN; Station 329; 2022-12-10 @ 22:54:53;,19464,10-12-22 22:54,POTTSTOWN,HIGH ST & S FRANKLIN ST,Minor Injury,High,Vehicle with vehicle collision,Other,0
10.42.0.211-31.13.80.52-37917-443-6,40.1388986,-75.1514572,BURN BRAE DR & DUNDEE DR; UPPER DUBLIN; 2022-12-10 @ 22:52:55-Station:STA88;,19025,10-12-22 22:52,UPPER DUBLIN,BURN BRAE DR & DUNDEE DR,Minor Injury,High,Vehicle with vehicle collision,,0
172.217.10.234-10.42.0.151-443-37957-6,40.1330371,-75.4084631,SHANNONDELL DR & SHANNONDELL BLVD;  LOWER PROVIDENCE; Station 322A; 2022-12-10 @ 22:55:35;,19403,10-12-22 22:55,LOWER PROVIDENCE,SHANNONDELL DR & SHANNONDELL BLVD,Death,Medium,Vehicle with vehicle collision,Residential areas,1
175.100.207.231-10.42.0.42-443-54986-6,39.9997391,-75.2557489,HEATH RD & ZOLLINGER WAY; LOWER MERION; 2022-12-10 @ 23:01:58-Station:STA26;,19066,10-12-22 23:01,LOWER MERION,HEATH RD & ZOLLINGER WAY,Greviously Injured,High,Vehicle with vehicle collision, Church areas,2
209.10.120.26-10.42.0.211-80-56918-6,40.0177675,-75.2300543,BELMONT AVE & OVERHILL RD; LOWER MERION; 2022-12-10 @ 23:02:27;,19004,10-12-22 23:02,LOWER MERION,BELMONT AVE & OVERHILL RD,Death,High,Vehicle with vehicle collision,Other,1
216.58.219.202-10.42.0.151-443-56272-6,40.2449124,-75.6443631,HIGH ST & S FRANKLIN ST;  POTTSTOWN; Station 329; 2022-12-10 @ 23:10:34;,19464,10-12-22 23:10,POTTSTOWN,HIGH ST & S FRANKLIN ST,Minor Injury,Medium,Collision with pedestrians,Other,0
10.42.0.151-95.213.11.133-44545-80-6,40.0809133,-75.2026651,STENTON AVE & E EVERGREEN AVE;  SPRINGFIELD; Station 311; 2022-12-10 @ 23:06:39;,19038,10-12-22 23:06,SPRINGFIELD,STENTON AVE & E EVERGREEN AVE,Greviously Injured,High,Collision with roadside objects,Residential areas,2
172.217.6.238-10.42.0.211-443-45270-6,40.0878981,-75.2629699,RIDGE PIKE & OAKWYN RD;  WHITEMARSH; Station 318; 2022-12-10 @ 23:16:10;,19444,10-12-22 23:16,WHITEMARSH,RIDGE PIKE & OAKWYN RD,Minor Injury,Medium,Vehicle with vehicle collision,Office areas,0
172.217.10.42-10.42.0.42-443-39789-6,40.0975908,-75.2525369,BARBERRY DR & PHEASANT LN;  WHITEMARSH; Station 318; 2022-12-10 @ 23:32:46;,19444,10-12-22 23:32,WHITEMARSH,BARBERRY DR & PHEASANT LN,Death,Medium,Vehicle with vehicle collision, Industrial areas,1
180.76.151.150-10.42.0.42-80-53951-6,40.2451166,-75.6460071,HIGH ST & S EVANS ST; POTTSTOWN; 2022-12-10 @ 23:45:50;,19464,10-12-22 23:45,POTTSTOWN,HIGH ST & S EVANS ST,Minor Injury,High,Vehicle with vehicle collision,Residential areas,0
172.217.6.196-10.42.0.42-443-35076-6,40.1550603,-75.1022513,DAVISVILLE RD & PENNYPACK RD;  UPPER MORELAND; Station 381; 2022-12-10 @ 23:58:13;,19040,10-12-22 23:58,UPPER MORELAND,DAVISVILLE RD & PENNYPACK RD,Death,High,Vehicle with vehicle collision,Office areas,1
183.79.250.123-10.42.0.211-443-35990-6,40.0837614,-75.1422046,WASHINGTON LN & W CHURCH RD;  CHELTENHAM; Station 358A; 2022-12-11 @ 00:01:29;,19095,11-12-22 0:01,CHELTENHAM,WASHINGTON LN & W CHURCH RD,Greviously Injured,Medium,With Train,Other,2
205.185.216.42-10.42.0.151-80-57376-6,40.1191612,-75.3423774,OAK ST & MAPLE ALY;  NORRISTOWN; Station 308A; 2022-12-11 @ 00:36:02;,19401,11-12-22 0:36,NORRISTOWN,OAK ST & MAPLE ALY,Minor Injury,High,Vehicle with vehicle collision, Church areas,0
10.42.0.211-10.42.0.1-31194-53-17,40.088204,-75.326639,RIVER RD & 3RD ST;  UPPER MERION; Station 317; 2022-12-11 @ 00:55:01;,19406,11-12-22 0:55,UPPER MERION,RIVER RD & 3RD ST,Greviously Injured,High,Vehicle with vehicle collision, Industrial areas,2
10.42.0.211-10.42.0.1-20641-53-17,40.1663037,-75.4202852,RIDGE PIKE & S GRANGE AVE;  LOWER PROVIDENCE; Station 322; 2022-12-11 @ 01:05:27;,19403,11-12-22 1:05,LOWER PROVIDENCE,RIDGE PIKE & S GRANGE AVE,Minor Injury,Medium,Vehicle with vehicle collision,  Recreational areas,0
10.42.0.42-121.12.98.63-52336-80-6,40.27503,-75.4298706,GRUBB RD & LARSON RD;  UPPER SALFORD; Station 331; 2022-12-11 @ 01:14:20;,19473,11-12-22 1:14,UPPER SALFORD,GRUBB RD & LARSON RD,Greviously Injured,High,Vehicle with vehicle collision,  Market areas,2
10.42.0.211-66.198.178.50-39227-80-6,40.1507107,-75.0552739,RED LION RD & RR CROSSING; LOWER MORELAND; 2022-12-11 @ 01:15:42;,,11-12-22 1:15,LOWER MORELAND,RED LION RD & RR CROSSING,Minor Injury,High,Vehicle with vehicle collision,Other,0
172.217.12.170-10.42.0.151-443-59730-6,40.0121546,-75.2995188,DREYCOTT LN & W LANCASTER AVE;  LOWER MERION; Station 313; 2022-12-11 @ 01:29:52;,19041,11-12-22 1:29,LOWER MERION,DREYCOTT LN & W LANCASTER AVE,Death,Medium,Vehicle with vehicle collision,Other,1
192.229.173.173-10.42.0.211-80-55300-6,40.1125844,-75.3297589,AIRY ST & TREMONT AVE;  NORRISTOWN; Station 308A; 2022-12-11 @ 02:00:40;,19401,11-12-22 2:00,NORRISTOWN,AIRY ST & TREMONT AVE,Minor Injury,High,Vehicle with vehicle collision, Industrial areas,0
10.42.0.211-10.42.0.1-20372-53-17,40.1185944,-75.1626529,PENN AVE & GARFIELD AVE;  ABINGTON; Station 383; 2022-12-11 @ 02:10:29;,19038,11-12-22 2:10,ABINGTON,PENN AVE & GARFIELD AVE,Death,Medium,Vehicle with vehicle collision,Other,1
202.77.129.150-10.42.0.42-80-39289-6,40.082481,-75.324636,RIVER RD & SWEDELAND RD; UPPER MERION; 2022-12-11 @ 02:26:33-Station:STA48;,19406,11-12-22 2:26,UPPER MERION,RIVER RD & SWEDELAND RD,Greviously Injured,Medium,Vehicle with vehicle collision,Office areas,2
10.42.0.151-72.21.206.140-33156-443-6,40.0025642,-75.2236498,CITY AVE & N 47TH ST; LOWER MERION; 2022-12-11 @ 02:34:58;,19004,11-12-22 2:34,LOWER MERION,CITY AVE & N 47TH ST,Minor Injury,High,Collision with pedestrians,Office areas,0
173.194.68.188-10.42.0.151-5228-36766-6,40.125582,-75.3205245,NORTH HILLS DR & JANEWAY DR;  NORRISTOWN; Station 308A; 2022-12-11 @ 03:02:34;,19401,11-12-22 3:02,NORRISTOWN,NORTH HILLS DR & JANEWAY DR,Minor Injury,High,Collision with roadside objects,Office areas,0
202.77.129.161-10.42.0.211-80-52114-6,40.1074003,-75.113206,THE FAIRWAY  & RYDAL RD;  ABINGTON; Station 382; 2022-12-11 @ 03:09:08;,19046,11-12-22 3:09,ABINGTON,THE FAIRWAY  & RYDAL RD,Greviously Injured,Medium,Collision with roadside objects,Office areas,2
174.35.73.93-10.42.0.211-80-33894-6,40.183013,-75.535937,4TH AVE & SPRING ST;  ROYERSFORD; Station 325; 2022-12-11 @ 03:15:36;,19468,11-12-22 3:15,ROYERSFORD,4TH AVE & SPRING ST,Minor Injury,High,Vehicle with vehicle collision,Other,0
10.42.0.211-47.93.77.90-38810-443-6,40.2349983,-75.2166077,WOODSTREAM WAY & CHERRYWOOD DR;  MONTGOMERY; Station 345A; 2022-12-11 @ 03:16:28;,19454,11-12-22 3:16,MONTGOMERY,WOODSTREAM WAY & CHERRYWOOD DR,Death,High,Vehicle with vehicle collision,Other,1
172.217.12.161-10.42.0.211-443-50922-6,40.04571,-75.298728,GREEN VALLEY RD & MT PLEASANT RD; LOWER MERION; 2022-12-11 @ 03:27:07-Station:STA24;,19010,11-12-22 3:27,LOWER MERION,GREEN VALLEY RD & MT PLEASANT RD,Minor Injury,Medium,Vehicle with vehicle collision,Other,0
10.42.0.211-104.192.108.27-53802-80-6,40.1148759,-75.3403903,GREEN ST & E AIRY ST;  NORRISTOWN; Station 308A; 2022-12-11 @ 03:50:26;,19401,11-12-22 3:50,NORRISTOWN,GREEN ST & E AIRY ST,Death,High,Vehicle with vehicle collision,Other,1
10.42.0.42-104.193.88.109-41640-80-6,40.0802937,-75.3060477,6TH AVE & WOOD ST;  CONSHOHOCKEN; Station 313A; 2022-12-11 @ 03:47:25;,19428,11-12-22 3:47,CONSHOHOCKEN,6TH AVE & WOOD ST,Greviously Injured,Medium,Vehicle with vehicle collision,Residential areas,2
10.42.0.211-23.21.51.186-40897-443-6,40.0794421,-75.3068746,WOOD ST & W 5TH AVE;  CONSHOHOCKEN; Station 313A; 2022-12-11 @ 03:47:25;,19428,11-12-22 3:47,CONSHOHOCKEN,WOOD ST & W 5TH AVE,Minor Injury,Medium,Collision with roadside objects, Church areas,0
10.42.0.151-10.42.0.1-5444-53-17,40.2641787,-75.656005,HARMONY DR & W HARMONY DR;  POTTSTOWN; Station 329; 2022-12-11 @ 03:59:09;,19464,11-12-22 3:59,POTTSTOWN,HARMONY DR & W HARMONY DR,Greviously Injured,High,Vehicle with vehicle collision,Office areas,2
202.102.68.102-10.42.0.151-80-54989-6,40.1142023,-75.3268041,NEW HOPE ST & CEDAR LN;  NORRISTOWN; Station 308A; 2022-12-11 @ 04:05:26;,19401,11-12-22 4:05,NORRISTOWN,NEW HOPE ST & CEDAR LN,Minor Injury,High,Vehicle with vehicle collision, Church areas,0
172.217.10.46-10.42.0.151-443-44475-6,40.0117673,-75.2946732,MONTGOMERY AVE & WOODSIDE RD;  LOWER MERION; Station 313; 2022-12-11 @ 04:11:35;,19041,11-12-22 4:11,LOWER MERION,MONTGOMERY AVE & WOODSIDE RD,Greviously Injured,Medium,Vehicle with vehicle collision,Other,2
10.42.0.211-23.206.166.62-45672-80-6,40.2905586,-75.2851444,SANDSTONE DR & NORTH PENN RD; HATFIELD TOWNSHIP; 2022-12-11 @ 04:19:56-Station:STA17;,19440,11-12-22 4:19,HATFIELD TOWNSHIP,SANDSTONE DR & NORTH PENN RD,Minor Injury,High,Vehicle with vehicle collision,Office areas,0
172.217.12.142-10.42.0.151-443-51360-6,40.1466487,-75.2192771,CHURCH ST & S MAIN ST; AMBLER; 2022-12-11 @ 04:31:00-Station:STA7;,19002,11-12-22 4:31,AMBLER,CHURCH ST & S MAIN ST,Death,High,Vehicle with vehicle collision,School areas,1
216.58.219.225-10.42.0.211-443-56019-6,40.1355778,-75.2738513,SENTRY PKWY & WALTON RD; WHITPAIN; 2022-12-11 @ 04:38:11-Station:STA33;,19422,11-12-22 4:38,WHITPAIN,SENTRY PKWY & WALTON RD,Minor Injury,Medium,Vehicle with vehicle collision,Office areas,0
10.42.0.211-10.42.0.1-22390-53-17,40.4024419,-75.4994835,MAIN ST & FRONT ST; PENNSBURG; 2022-12-11 @ 04:36:27-Station:STA65;,18073,11-12-22 4:36,PENNSBURG,MAIN ST & FRONT ST,Death,High,Collision with pedestrians,Other,1
10.42.0.211-119.146.74.33-53735-443-6,40.1653934,-75.2829046,NORTHGATE BLVD & QUAKERTOWN RD; WHITPAIN; 2022-12-11 @ 05:19:35;,,11-12-22 5:19,WHITPAIN,NORTHGATE BLVD & QUAKERTOWN RD,Greviously Injured,High,Collision with pedestrians,Office areas,2
10.42.0.151-65.55.223.36-43477-40035-17,40.1489915,-75.260516,SKIPPACK PIKE & WALTON RD; WHITPAIN; 2022-12-11 @ 05:20:59;,19422,11-12-22 5:20,WHITPAIN,SKIPPACK PIKE & WALTON RD,Minor Injury,Medium,Collision with roadside objects,Other,0
10.42.0.211-23.194.140.226-43316-80-6,40.4014255,-75.4939718,RT663 & QUAKERTOWN AVE; UPPER HANOVER; 2022-12-11 @ 05:19:35;,18073,11-12-22 5:19,UPPER HANOVER,RT663 & QUAKERTOWN AVE,Minor Injury,High,Collision with pedestrians,Other,0
10.42.0.42-34.225.147.89-44684-443-6,40.3881677,-75.5059427,RT663; UPPER HANOVER; 2022-12-11 @ 05:27:49-Station:STA65;,18073,11-12-22 5:27,UPPER HANOVER,RT663,Death,Medium,Vehicle with vehicle collision,Office areas,1
10.42.0.211-122.225.81.61-40754-80-6,40.1498641,-75.3646526,EAGLE DR & BURNSIDE AVE; WEST NORRITON; 2022-12-11 @ 05:55:06-Station:STA46;,19403,11-12-22 5:55,WEST NORRITON,EAGLE DR & BURNSIDE AVE,Greviously Injured,Medium,Vehicle with vehicle collision,Other,2
172.217.11.46-10.42.0.151-443-36134-6,40.161709,-75.1959681,HONEY RUN RD & JEFFERSON RD;  UPPER DUBLIN; Station 351; 2022-12-11 @ 06:01:00;,19002,11-12-22 6:01,UPPER DUBLIN,HONEY RUN RD & JEFFERSON RD,Death,High,Vehicle with vehicle collision, Church areas,1
10.42.0.151-52.84.29.154-43891-443-6,40.2552707,-75.3407218,WOODS DR & DETWILER RD;  TOWAMENCIN; Station 345B; 2022-12-11 @ 06:05:42;,19446,11-12-22 6:05,TOWAMENCIN,WOODS DR & DETWILER RD,Minor Injury,High,Collision with roadside objects,Office areas,0
198.105.244.11-10.42.0.42-80-36999-6,40.3256048,-75.3249254,WASHINGTON AVE & E HAMLIN AVE;  TELFORD; Station 339; 2022-12-11 @ 06:16:36;,18969,11-12-22 6:16,TELFORD,WASHINGTON AVE & E HAMLIN AVE,Minor Injury,Medium,Collision with roadside objects,Office areas,0
183.79.248.124-10.42.0.151-443-44381-6,40.148858,-75.2328423,DETWEILER LN & BUTLER PIKE;  WHITEMARSH; Station 318; 2022-12-11 @ 06:19:42;,19002,11-12-22 6:19,WHITEMARSH,DETWEILER LN & BUTLER PIKE,Greviously Injured,High,Vehicle with vehicle collision,Other,2
10.42.0.151-10.42.0.1-37786-53-17,40.155827,-75.3652085,GERMANTOWN PIKE & BRIDLE PATH RD; EAST NORRITON; 2022-12-11 @ 06:17:56;,19403,11-12-22 6:17,EAST NORRITON,GERMANTOWN PIKE & BRIDLE PATH RD,Minor Injury,High,Vehicle with vehicle collision,Residential areas,0
10.42.0.42-14.29.93.243-44826-80-6,40.1290496,-75.3288609,POWELL ST & E LOGAN ST;  NORRISTOWN; Station 308A; 2022-12-11 @ 06:23:57;,19401,11-12-22 6:23,NORRISTOWN,POWELL ST & E LOGAN ST,Death,Medium,Vehicle with vehicle collision,Residential areas,1
10.42.0.151-52.94.232.32-56136-443-6,40.1098472,-75.3937796,BEIDLER RD & SARATOGA RD;  UPPER MERION; Station 317; 2022-12-11 @ 06:27:29;,19406,11-12-22 6:27,UPPER MERION,BEIDLER RD & SARATOGA RD,Minor Injury,High,Vehicle with vehicle collision,Office areas,0
172.217.3.110-10.42.0.151-443-55109-6,40.2763043,-75.5650236,SWAMP PIKE & SANATOGA RD; NEW HANOVER; 2022-12-11 @ 06:34:05;,19525,11-12-22 6:34,NEW HANOVER,SWAMP PIKE & SANATOGA RD,Death,Medium,Vehicle with vehicle collision,Other,1
10.42.0.1-10.42.0.42-53-8784-17,40.3055837,-75.4903214,WESTVIEW DR & ASH WAY;  UPPER FREDERICK; Station 344A; 2022-12-11 @ 06:38:39;,18074,11-12-22 6:38,UPPER FREDERICK,WESTVIEW DR & ASH WAY,Greviously Injured,Medium,Vehicle with vehicle collision,Office areas,2
10.42.0.211-10.42.0.1-51348-53-17,40.2919414,-75.5420241,COLONIAL RD & HILDEBEIDEL RD;  UPPER FREDERICK; Station 331; 2022-12-11 @ 06:55:44;,18074,11-12-22 6:55,UPPER FREDERICK,COLONIAL RD & HILDEBEIDEL RD,Minor Injury,High,Vehicle with vehicle collision,School areas,0
174.35.73.111-10.42.0.211-80-36558-6,40.2431339,-75.6464342,SOUTH ST & S EVANS ST; POTTSTOWN; 2022-12-11 @ 07:04:00;,19464,11-12-22 7:04,POTTSTOWN,SOUTH ST & S EVANS ST,Greviously Injured,High,Vehicle with vehicle collision,Other,2
131.253.61.84-10.42.0.211-443-52043-6,40.0249667,-75.2829046,SCHUYLKILL EXPY & MILL CREEK RD UNDERPASS; LOWER MERION; 2022-12-11 @ 07:09:41;,,11-12-22 7:09,LOWER MERION,SCHUYLKILL EXPY & MILL CREEK RD UNDERPASS,Minor Injury,Medium,Vehicle with vehicle collision,Other,0
172.217.3.106-10.42.0.211-443-49884-6,40.1330371,-75.4084631,SHANNONDELL DR & SHANNONDELL BLVD;  LOWER PROVIDENCE; Station 322A; 2022-12-11 @ 07:17:26;,19403,11-12-22 7:17,LOWER PROVIDENCE,SHANNONDELL DR & SHANNONDELL BLVD,Greviously Injured,High,Collision with roadside objects, Church areas,2
10.42.0.151-65.55.118.92-38909-80-6,40.1497607,-75.4785811,EDGEHILL LN & HOLLOW RD; UPPER PROVIDENCE; 2022-12-11 @ 07:23:38;,19460,11-12-22 7:23,UPPER PROVIDENCE,EDGEHILL LN & HOLLOW RD,Minor Injury,High,Collision with roadside objects,Office areas,0
192.229.173.173-10.42.0.151-80-39772-6,40.2469315,-75.6439204,CHESTNUT ST & N FRANKLIN ST; POTTSTOWN; 2022-12-11 @ 07:26:10-Station:STA69;,19464,11-12-22 7:26,POTTSTOWN,CHESTNUT ST & N FRANKLIN ST,Death,Medium,Collision with pedestrians,Other,1
10.42.0.151-10.42.0.1-52412-53-17,40.0134468,-75.2361093,E LEVERING MILL RD & CONSHOHOCKEN STATE RD; LOWER MERION; 2022-12-11 @ 07:29:58;,19004,11-12-22 7:29,LOWER MERION,E LEVERING MILL RD & CONSHOHOCKEN STATE RD,Minor Injury,High,Vehicle with vehicle collision,Residential areas,0
174.35.73.93-10.42.0.211-80-34045-6,40.079443,-75.331833,RENAISSANCE BLVD & SWEDELAND RD; UPPER MERION; 2022-12-11 @ 07:28:48;,19406,11-12-22 7:28,UPPER MERION,RENAISSANCE BLVD & SWEDELAND RD,Death,High,Vehicle with vehicle collision,Office areas,1
172.217.12.138-10.42.0.42-443-43887-6,40.1074003,-75.113206,THE FAIRWAY  & RYDAL RD;  ABINGTON; Station 382; 2022-12-11 @ 07:31:07;,19046,11-12-22 7:31,ABINGTON,THE FAIRWAY  & RYDAL RD,Greviously Injured,Medium,Vehicle with vehicle collision,Office areas,2
172.217.8.3-10.42.0.42-443-33991-6,40.1313819,-75.3547959,JAMES ST & FOREST AVE; WEST NORRITON; 2022-12-11 @ 07:42:01;,19401,11-12-22 7:42,WEST NORRITON,JAMES ST & FOREST AVE,Minor Injury,High,Vehicle with vehicle collision,Office areas,0
10.42.0.211-116.211.111.239-47190-80-6,40.1527341,-75.2264827,BUTLER AVE & S CHESTNUT ST;  AMBLER; Station 351; 2022-12-11 @ 07:53:34;,19002,11-12-22 7:53,AMBLER,BUTLER AVE & S CHESTNUT ST,Minor Injury,Medium,Vehicle with vehicle collision, Church areas,0
8.0.6.4-8.6.0.1-0-0-0,40.2566279,-75.2612699,LINE ST & COWPATH RD; HATFIELD TOWNSHIP; 2022-12-11 @ 07:58:37-Station:STA12;,19446,11-12-22 7:58,HATFIELD TOWNSHIP,LINE ST & COWPATH RD,Death,Medium,Vehicle with vehicle collision,Office areas,1
172.217.3.106-10.42.0.211-443-46336-6,40.1564481,-75.1220797,EASTON RD & ANDREA DR;  UPPER MORELAND; Station 381; 2022-12-11 @ 08:01:43;,19090,11-12-22 8:01,UPPER MORELAND,EASTON RD & ANDREA DR,Greviously Injured,High,Vehicle with vehicle collision,Office areas,2
10.42.0.211-121.12.98.63-47438-80-6,40.1211757,-75.1333613,SUSQUEHANNA RD & EASTON RD; ABINGTON; 2022-12-11 @ 08:04:24;,19001,11-12-22 8:04,ABINGTON,SUSQUEHANNA RD & EASTON RD,Death,High,Vehicle with vehicle collision,Office areas,1
10.42.0.211-66.102.255.40-44824-443-6,40.1236821,-75.3254952,GLENN VALLEY DR & E ROBERTS ST;  NORRISTOWN; Station 308A; 2022-12-11 @ 08:06:51;,19401,11-12-22 8:06,NORRISTOWN,GLENN VALLEY DR & E ROBERTS ST,Minor Injury,Medium,Vehicle with vehicle collision,Office areas,0
10.42.0.211-10.42.0.1-15853-53-17,40.2414952,-75.2837862,HANCOCK ST & RR CROSSING; LANSDALE; 2022-12-11 @ 08:06:28;,,11-12-22 8:06,LANSDALE,HANCOCK ST & RR CROSSING,Minor Injury,High,Collision with pedestrians,Other,0
202.77.129.161-10.42.0.42-80-36854-6,40.344816,-75.3623206,BARNDT RD & COWPATH RD; SALFORD; 2022-12-11 @ 08:11:35-Station:STA72;,18969,11-12-22 8:11,SALFORD,BARNDT RD & COWPATH RD,Greviously Injured,Medium,Collision with pedestrians,Residential areas,2
202.77.129.230-10.42.0.42-80-58574-6,40.0823492,-75.1613157,LIMEKILN PIKE & GREENWOOD AVE; CHELTENHAM; 2022-12-11 @ 08:12:11;,19095,11-12-22 8:12,CHELTENHAM,LIMEKILN PIKE & GREENWOOD AVE,Minor Injury,Medium,Vehicle with vehicle collision, Church areas,0
172.217.7.227-10.42.0.151-443-40202-6,40.1848404,-75.1205124,CEDAR AVE & COTTAGE AVE; HORSHAM; 2022-12-11 @ 08:11:42;,19044,11-12-22 8:11,HORSHAM,CEDAR AVE & COTTAGE AVE,Death,High,Vehicle with vehicle collision,Other,1
10.42.0.211-23.23.168.13-35513-443-6,40.129538,-75.3246363,E JOHNSON HWY & DEKALB PIKE; NORRISTOWN; 2022-12-11 @ 08:13:29;,19401,11-12-22 8:13,NORRISTOWN,E JOHNSON HWY & DEKALB PIKE,Minor Injury,High,Vehicle with vehicle collision,  Recreational areas,0
208.80.154.224-10.42.0.211-443-47826-6,40.1198332,-75.1253492,SUSQUEHANNA RD & TYSON AVE OVERPASS; ABINGTON; 2022-12-11 @ 08:04:24;,,11-12-22 8:04,ABINGTON,SUSQUEHANNA RD & TYSON AVE OVERPASS,Death,Medium,Vehicle with vehicle collision,Office areas,1
206.126.112.142-10.42.0.151-443-51027-6,40.2290075,-75.3878525,BROAD ST & S WAYNE AVE;  HATFIELD BORO; Station 345; 2022-12-11 @ 08:20:51;,,11-12-22 8:20,HATFIELD BORO,BROAD ST & S WAYNE AVE,Greviously Injured,High,Vehicle with vehicle collision, Industrial areas,2
172.217.12.142-10.42.0.151-443-45721-6,40.0850736,-75.3886248,GULPH RD & W DEKALB PIKE; UPPER MERION; 2022-12-11 @ 08:21:47-Station:STA47;,19406,11-12-22 8:21,UPPER MERION,GULPH RD & W DEKALB PIKE,Minor Injury,High,Vehicle with vehicle collision,Other,0
172.217.10.106-10.42.0.151-443-41707-6,40.0931406,-75.3677644,W DEKALB PIKE & TOWN CENTER RD; UPPER MERION; 2022-12-11 @ 08:26:35;,19406,11-12-22 8:26,UPPER MERION,W DEKALB PIKE & TOWN CENTER RD,Greviously Injured,Medium,Vehicle with vehicle collision,Other,2
10.42.0.211-64.71.142.120-53876-443-6,40.0279994,-75.3122906,NEW GULPH RD & CAVERSHAM RD;  LOWER MERION; Station 313; 2022-12-11 @ 08:29:10;,19010,11-12-22 8:29,LOWER MERION,NEW GULPH RD & CAVERSHAM RD,Minor Injury,High,Vehicle with vehicle collision, Church areas,0
180.149.134.221-10.42.0.151-80-42790-6,40.1086301,-75.1231264,OLD YORK RD & HIDDEN LN; ABINGTON; 2022-12-11 @ 08:26:36;,19001,11-12-22 8:26,ABINGTON,OLD YORK RD & HIDDEN LN,Greviously Injured,High,Vehicle with vehicle collision, Church areas,2
192.229.173.173-10.42.0.151-80-59835-6,40.2212266,-75.2887369,SUMNEYTOWN PIKE & RR OVERPASS;  UPPER GWYNEDD; Station 345B; 2022-12-11 @ 08:31:15;,,11-12-22 8:31,UPPER GWYNEDD,SUMNEYTOWN PIKE & RR OVERPASS,Minor Injury,Medium,Vehicle with vehicle collision,Other,0
10.42.0.211-66.102.255.40-50788-80-6,40.2394356,-75.2362381,HORSHAM RD & DOYLESTOWN PIKE; MONTGOMERY; 2022-12-11 @ 08:32:15;,,11-12-22 8:32,MONTGOMERY,HORSHAM RD & DOYLESTOWN PIKE,Death,High,Vehicle with vehicle collision,Other,1
10.42.0.211-23.205.27.180-59858-443-6,40.1330371,-75.4084631,SHANNONDELL DR & SHANNONDELL BLVD;  LOWER PROVIDENCE; Station 322A; 2022-12-11 @ 08:44:20;,19403,11-12-22 8:44,LOWER PROVIDENCE,SHANNONDELL DR & SHANNONDELL BLVD,Minor Injury,Medium,Vehicle with vehicle collision,  Recreational areas,0
10.42.0.211-23.206.166.66-55025-80-6,40.204159,-75.1723943,HORSHAM RD & CAREDEAN DR; HORSHAM; 2022-12-11 @ 08:41:39;,19044,11-12-22 8:41,HORSHAM,HORSHAM RD & CAREDEAN DR,Death,Medium,Vehicle with vehicle collision,Other,1
172.217.10.110-10.42.0.211-443-54132-6,40.4339309,-75.4680749,COUNTY LINE RD & BAUS RD;  LEHIGH COUNTY; Station 369; 2022-12-11 @ 08:46:05;,18041,11-12-22 8:46,LEHIGH COUNTY,COUNTY LINE RD & BAUS RD,Greviously Injured,High,Vehicle with vehicle collision,Office areas,2
183.79.248.252-10.42.0.211-443-55917-6,40.297967,-75.2960191,BERGEY RD & CAMPUS DR; HATFIELD TOWNSHIP; 2022-12-11 @ 08:50:08-Station:STA17;,19440,11-12-22 8:50,HATFIELD TOWNSHIP,BERGEY RD & CAMPUS DR,Minor Injury,High,Vehicle with vehicle collision, Church areas,0
172.217.12.206-10.42.0.42-443-32851-6,40.0836572,-75.1647407,GREENWOOD AVE; CHELTENHAM; 2022-12-11 @ 08:47:58-Station:STA1;,19095,11-12-22 8:47,CHELTENHAM,GREENWOOD AVE,Minor Injury,Medium,Vehicle with vehicle collision,Office areas,0
216.58.219.200-10.42.0.151-443-47038-6,40.1847975,-75.286879,TWIN SILO DR & MORRIS RD; WHITPAIN; 2022-12-11 @ 08:46:58-Station:STA33;,19422,11-12-22 8:46,WHITPAIN,TWIN SILO DR & MORRIS RD,Death,High,Vehicle with vehicle collision,Office areas,1
10.42.0.211-14.29.93.254-48471-80-6,40.1545535,-75.2215651,PARK ON ALLENTOWN  ; AMBLER; 2022-12-11 @ 08:50:55;,,11-12-22 8:50,AMBLER,PARK ON ALLENTOWN,Greviously Injured,High,Vehicle with vehicle collision,Other,2
172.217.10.133-10.42.0.151-443-55487-6,40.1793752,-75.2362381,RT309 EXPY & NORRISTOWN RD UNDERPASS; LOWER GWYNEDD; 2022-12-11 @ 08:49:07;,,11-12-22 8:49,LOWER GWYNEDD,RT309 EXPY & NORRISTOWN RD UNDERPASS,Death,Medium,Vehicle with vehicle collision,Residential areas,1
183.232.231.30-10.42.0.211-443-43562-6,40.1793752,-75.2362381,RT309 EXPY & NORRISTOWN RD UNDERPASS; LOWER GWYNEDD; 2022-12-11 @ 08:50:04;,,11-12-22 8:50,LOWER GWYNEDD,RT309 EXPY & NORRISTOWN RD UNDERPASS,Minor Injury,High,Vehicle with vehicle collision,Office areas,0
10.42.0.211-50.18.251.157-58345-443-6,40.092353,-75.138325,GREENWOOD AVE & E GLENSIDE AVE; CHELTENHAM; 2022-12-11 @ 08:47:35;,19095,11-12-22 8:47,CHELTENHAM,GREENWOOD AVE & E GLENSIDE AVE,Greviously Injured,Medium,Vehicle with vehicle collision,Residential areas,2
10.42.0.211-10.42.0.1-4680-53-17,40.092353,-75.138325,GREENWOOD AVE & E GLENSIDE AVE; CHELTENHAM; 2022-12-11 @ 08:47:58-Station:STA1;,19095,11-12-22 8:47,CHELTENHAM,GREENWOOD AVE & E GLENSIDE AVE,Minor Injury,Medium,Collision with roadside objects,Residential areas,0
8.0.6.4-8.6.0.1-0-0-0,40.1255016,-75.3217964,NORTH HILLS DR & NATALIE LN;  NORRISTOWN; Station 308A; 2022-12-11 @ 08:54:14;,19401,11-12-22 8:54,NORRISTOWN,NORTH HILLS DR & NATALIE LN,Minor Injury,High,Collision with roadside objects,Other,0
10.42.0.211-10.42.0.1-9793-53-17,40.3490683,-75.4818301,DOGWOOD DR & GREEN HILL DR;  MARLBOROUGH; Station 344A; 2022-12-11 @ 08:57:50;,18054,11-12-22 8:57,MARLBOROUGH,DOGWOOD DR & GREEN HILL DR,Death,High,Vehicle with vehicle collision, Hospital areas,1
172.233.128.50-10.42.0.211-80-41250-6,40.1899626,-75.5355215,CHURCH ST & N 7TH AVE;  ROYERSFORD; Station 325; 2022-12-11 @ 09:06:33;,19468,11-12-22 9:06,ROYERSFORD,CHURCH ST & N 7TH AVE,Greviously Injured,Medium,Vehicle with vehicle collision,Other,2
8.39.37.61-10.42.0.151-443-44297-6,40.2864378,-75.2637619,BETHLEHEM PIKE & HILLTOWN PIKE; HATFIELD TOWNSHIP; 2022-12-11 @ 09:14:04-Station:STA12;,19440,11-12-22 9:14,HATFIELD TOWNSHIP,BETHLEHEM PIKE & HILLTOWN PIKE,Death,High,Vehicle with vehicle collision,Other,1
174.35.73.71-10.42.0.42-80-39415-6,40.1335334,-75.0564601,CAMPUS DR & BUCK RD; BRYN ATHYN; 2022-12-11 @ 09:29:49-Station:STA11;,19009,11-12-22 9:29,BRYN ATHYN,CAMPUS DR & BUCK RD,Minor Injury,High,Vehicle with vehicle collision,  Recreational areas,0
10.42.0.211-10.42.0.1-49003-53-17,40.1195768,-75.0622361,PHILMONT AVE & ANNE ST; LOWER MORELAND; 2022-12-11 @ 09:32:05-Station:STA8;,19006,11-12-22 9:32,LOWER MORELAND,PHILMONT AVE & ANNE ST,Minor Injury,Medium,Collision with roadside objects,Other,0
180.149.136.194-10.42.0.151-80-34469-6,40.0879229,-75.2832089,RED RAMBLER DR & WISTERIA LN;  WHITEMARSH; Station 318; 2022-12-11 @ 09:33:14;,19444,11-12-22 9:33,WHITEMARSH,RED RAMBLER DR & WISTERIA LN,Greviously Injured,High,Vehicle with vehicle collision,Other,2
173.194.175.100-10.42.0.151-443-48770-6,40.1823738,-75.1049136,YORK RD & VILLAGE PL;  HATBORO; Station 384; 2022-12-11 @ 09:38:57;,19040,11-12-22 9:38,HATBORO,YORK RD & VILLAGE PL,Minor Injury,High,Collision with roadside objects,Other,0
216.58.217.163-10.42.0.151-80-54806-6,40.0812601,-75.1370254,LIMEKILN PIKE & RT309 EXPY SB;  CHELTENHAM; Station 358A; 2022-12-11 @ 09:37:59;,,11-12-22 9:37,CHELTENHAM,LIMEKILN PIKE & RT309 EXPY SB,Death,Medium,Collision with roadside objects,Office areas,1
10.42.0.42-69.147.82.60-49048-443-6,40.2456734,-75.2796667,BROAD ST & E 6TH ST; LANSDALE; 2022-12-11 @ 09:45:42-Station:STA14;,19446,11-12-22 9:45,LANSDALE,BROAD ST & E 6TH ST,Minor Injury,High,Collision with pedestrians,Other,0
175.100.207.233-10.42.0.211-80-48129-6,40.3858833,-75.4654069,FINLAND RD & GERYVILLE PIKE;  UPPER HANOVER; Station 369; 2022-12-11 @ 09:54:31;,18073,11-12-22 9:54,UPPER HANOVER,FINLAND RD & GERYVILLE PIKE,Death,Medium,Vehicle with vehicle collision,Residential areas,1
10.42.0.151-10.42.0.1-36260-53-17,40.0902994,-75.1040868,BEVERLY RD & FORREST AVE; ABINGTON; 2022-12-11 @ 09:53:22;,19046,11-12-22 9:53,ABINGTON,BEVERLY RD & FORREST AVE,Greviously Injured,Medium,Collision with roadside objects,Other,2
10.42.0.211-23.7.36.183-37263-443-6,40.2309343,-75.5221245,LIGHTCAP RD & SANATOGA SPRINGS DR;  LIMERICK; Station 324A; 2022-12-11 @ 09:58:14;,19468,11-12-22 9:58,LIMERICK,LIGHTCAP RD & SANATOGA SPRINGS DR,Minor Injury,High,Vehicle with vehicle collision,Other,0
192.229.163.180-10.42.0.211-443-38750-6,40.0933278,-75.2819813,RIDGE PIKE & MALAN DR; WHITEMARSH; 2022-12-11 @ 10:15:57;,19428,11-12-22 10:15,WHITEMARSH,RIDGE PIKE & MALAN DR,Greviously Injured,High,Vehicle with vehicle collision, Church areas,2
10.42.0.42-31.13.71.1-60656-443-6,40.1234522,-75.350889,OAK ST & BODEY ALY;  NORRISTOWN; Station 308A; 2022-12-11 @ 10:18:38;,19401,11-12-22 10:18,NORRISTOWN,OAK ST & BODEY ALY,Minor Injury,Medium,Vehicle with vehicle collision,Office areas,0
172.217.12.206-10.42.0.151-443-55362-6,39.9955678,-75.2598013,HONEYSUCKLE LN & STRAWBERRY LN;  LOWER MERION; Station 313; 2022-12-11 @ 10:22:27;,19096,11-12-22 10:22,LOWER MERION,HONEYSUCKLE LN & STRAWBERRY LN,Greviously Injured,High,Vehicle with vehicle collision,School areas,2
220.181.7.190-10.42.0.211-443-46425-6,40.1385244,-75.5032506,BRIDGE ST;  UPPER PROVIDENCE; Station 3A85; 2022-12-11 @ 10:29:13;,,11-12-22 10:29,UPPER PROVIDENCE,BRIDGE ST,Minor Injury,High,Vehicle with vehicle collision,Other,0
10.42.0.211-10.42.0.1-48152-53-17,40.1258785,-75.0861109,WALLER DR & WELSH RD; LOWER MORELAND; 2022-12-11 @ 10:30:32;,19006,11-12-22 10:30,LOWER MORELAND,WALLER DR & WELSH RD,Death,Medium,Vehicle with vehicle collision,Office areas,1
10.42.0.1-10.42.0.42-53-61525-17,40.1723141,-75.4927278,BRIDGE ST & RR OVERPASS; UPPER PROVIDENCE; 2022-12-11 @ 10:33:12;,,11-12-22 10:33,UPPER PROVIDENCE,BRIDGE ST & RR OVERPASS,Minor Injury,High,Collision with roadside objects,Residential areas,0
10.42.0.151-10.42.0.1-11152-53-17,40.1033767,-75.4124499,VALLEY FORGE CIR & OLD VALLEY FORGE RD;  UPPER MERION; Station 317; 2022-12-11 @ 10:34:58;,19406,11-12-22 10:34,UPPER MERION,VALLEY FORGE CIR & OLD VALLEY FORGE RD,Death,Medium,Vehicle with vehicle collision, Industrial areas,1
10.42.0.211-10.42.0.1-62994-53-17,40.1156859,-75.3329667,VIOLET ST & E OAK ST; NORRISTOWN; 2022-12-11 @ 10:32:59-Station:STA27;,19401,11-12-22 10:32,NORRISTOWN,VIOLET ST & E OAK ST,Greviously Injured,Medium,Collision with roadside objects,Other,2
172.217.12.202-10.42.0.211-443-57200-6,40.1385244,-75.5032506,BRIDGE ST; UPPER PROVIDENCE; 2022-12-11 @ 10:37:33-Station:STA99;,,11-12-22 10:37,UPPER PROVIDENCE,BRIDGE ST,Greviously Injured,High,Vehicle with vehicle collision,Residential areas,2
172.217.12.174-10.42.0.151-443-34132-6,40.243582,-75.281722,BROAD ST & E 4TH ST;  LANSDALE; Station 345; 2022-12-11 @ 10:36:28;,19446,11-12-22 10:36,LANSDALE,BROAD ST & E 4TH ST,Minor Injury,Medium,Vehicle with vehicle collision,  Recreational areas,0
222.73.28.96-10.42.0.151-80-55682-6,40.0360186,-75.2877431,BLACK ROCK RD & ROCK CREEK RD; LOWER MERION; 2022-12-11 @ 10:38:51-Station:STA24;,19035,11-12-22 10:38,LOWER MERION,BLACK ROCK RD & ROCK CREEK RD,Minor Injury,Medium,Vehicle with vehicle collision,Office areas,0
172.217.10.142-10.42.0.211-443-55322-6,40.1764038,-75.2250294,N BETHLEHEM PIKE & SPRINGWOOD LN; LOWER GWYNEDD; 2022-12-11 @ 10:39:19;,19002,11-12-22 10:39,LOWER GWYNEDD,N BETHLEHEM PIKE & SPRINGWOOD LN,Death,High,Collision with roadside objects, Outside rural areas,1
10.42.0.211-31.13.69.197-54780-443-6,40.1517793,-75.0415703,WARFIELD DR & BOBWHITE LN; LOWER MORELAND; 2022-12-11 @ 10:45:57;,19006,11-12-22 10:45,LOWER MORELAND,WARFIELD DR & BOBWHITE LN,Greviously Injured,High,Collision with roadside objects, Outside rural areas,2
172.217.12.174-10.42.0.42-443-34453-6,40.1801046,-75.3625298,VALLEY FORGE RD & STUMP HALL RD; WORCESTER; 2022-12-11 @ 10:44:35;,19403,11-12-22 10:44,WORCESTER,VALLEY FORGE RD & STUMP HALL RD,Death,Medium,Vehicle with vehicle collision, Outside rural areas,1
10.42.0.211-10.42.0.1-23546-53-17,40.1910464,-75.4662767,11TH AVE & SCHOOL ST;  COLLEGEVILLE; Station 324; 2022-12-11 @ 10:46:18;,19426,11-12-22 10:46,COLLEGEVILLE,11TH AVE & SCHOOL ST,Minor Injury,High,Vehicle with vehicle collision, Outside rural areas,0
205.185.216.10-10.42.0.211-80-40652-6,40.1198332,-75.1253492,SUSQUEHANNA RD & RR CROSSING; ABINGTON; 2022-12-11 @ 10:47:46;,,11-12-22 10:47,ABINGTON,SUSQUEHANNA RD & RR CROSSING,Minor Injury,High,Vehicle with vehicle collision, Outside rural areas,0
157.55.130.151-10.42.0.211-443-60774-17,40.2515986,-75.2922951,N VALLEY FORGE RD;  LANSDALE; Station 345; 2022-12-11 @ 10:55:49;,19446,11-12-22 10:55,LANSDALE,N VALLEY FORGE RD,Greviously Injured,Medium,Vehicle with vehicle collision,School areas,2
169.45.248.175-10.42.0.151-5222-48743-6,40.1784422,-75.1285061,EASTON RD & WGNAS MAIN GATE; HORSHAM; 2022-12-11 @ 10:48:52;,,11-12-22 10:48,HORSHAM,EASTON RD & WGNAS MAIN GATE,Minor Injury,High,Vehicle with vehicle collision, Outside rural areas,0
10.42.0.151-10.42.0.1-44917-53-17,40.072731,-75.1559688,CHELTENHAM AVE & 79TH AVE; CHELTENHAM; 2022-12-11 @ 11:02:30;,19150,11-12-22 11:02,CHELTENHAM,CHELTENHAM AVE & 79TH AVE,Death,High,Vehicle with vehicle collision, Outside rural areas,1
10.42.0.211-69.147.82.60-42854-443-6,40.2212266,-75.2887369,RT202 PKWY & WELSH RD; UPPER GWYNEDD; 2022-12-11 @ 11:06:30;,,11-12-22 11:06,UPPER GWYNEDD,RT202 PKWY & WELSH RD,Minor Injury,Medium,Vehicle with vehicle collision, Outside rural areas,0
10.42.0.211-115.239.210.141-59981-80-6,40.1210265,-75.3581642,MAIN ST & BUTTONWOOD ST;  NORRISTOWN; Station 308A; 2022-12-11 @ 11:20:38;,19401,11-12-22 11:20,NORRISTOWN,MAIN ST & BUTTONWOOD ST,Death,High,Collision with roadside objects, Outside rural areas,1
173.194.206.188-10.42.0.151-5228-41206-6,40.2682855,-75.6248005,CHARLOTTE ST & SCHOOL RD; LOWER POTTSGROVE; 2022-12-11 @ 11:21:46-Station:STA59;,19464,11-12-22 11:21,LOWER POTTSGROVE,CHARLOTTE ST & SCHOOL RD,Greviously Injured,Medium,Collision with roadside objects,Office areas,2
10.42.0.1-10.42.0.42-53-17856-17,40.119449,-75.1926774,WALNUT AVE & ORELAND MILL RD;  SPRINGFIELD; Station 311; 2022-12-11 @ 11:21:11;,19075,11-12-22 11:21,SPRINGFIELD,WALNUT AVE & ORELAND MILL RD,Minor Injury,Medium,Collision with roadside objects, Outside rural areas,0
10.42.0.151-23.66.240.213-55041-80-6,40.1463007,-75.0600812,HUNTINGDON PIKE & CALVIN RD;  LOWER MORELAND; Station 355; 2022-12-11 @ 11:34:58;,19006,11-12-22 11:34,LOWER MORELAND,HUNTINGDON PIKE & CALVIN RD,Greviously Injured,High,Vehicle with vehicle collision, Outside rural areas,2
172.217.10.238-10.42.0.42-443-47992-6,40.0249667,-75.2829046,MAPLEHILL RD & DEAD END; LOWER MERION; 2022-12-11 @ 11:31:42-Station:STA24;,,11-12-22 11:31,LOWER MERION,MAPLEHILL RD & DEAD END,Minor Injury,High,Vehicle with vehicle collision, Outside rural areas,0
10.42.0.151-64.71.142.124-52678-443-6,40.1589924,-75.4070513,RIDGE PIKE & SUMMIT AVE; LOWER PROVIDENCE; 2022-12-11 @ 11:35:44-Station:STA53;,19403,11-12-22 11:35,LOWER PROVIDENCE,RIDGE PIKE & SUMMIT AVE,Greviously Injured,Medium,Vehicle with vehicle collision,Office areas,2
8.0.6.4-8.6.0.1-0-0-0,40.096173,-75.158023,EASTON RD & SPRINGHOUSE LN; CHELTENHAM; 2022-12-11 @ 11:35:17;,19038,11-12-22 11:35,CHELTENHAM,EASTON RD & SPRINGHOUSE LN,Minor Injury,High,Vehicle with vehicle collision,  Recreational areas,0
172.217.3.106-10.42.0.151-443-49602-6,40.3116295,-75.3310962,SUMMIT ST & COLONIAL AVE;  FRANCONIA; Station 339; 2022-12-11 @ 11:37:54;,18964,11-12-22 11:37,FRANCONIA,SUMMIT ST & COLONIAL AVE,Death,High,Collision with pedestrians,Office areas,1
175.100.207.233-10.42.0.151-80-52188-6,40.1355514,-75.2150436,LAFAYETTE AVE & LAFAYETTE AVE CONNECTOR; WHITEMARSH; 2022-12-11 @ 11:39:06-Station:STA29;,19034,11-12-22 11:39,WHITEMARSH,LAFAYETTE AVE & LAFAYETTE AVE CONNECTOR,Minor Injury,Medium,Collision with pedestrians,Other,0
205.204.101.47-10.42.0.42-443-39870-6,40.0916956,-75.2889349,KIRK ST & BUTLER PIKE;  PLYMOUTH; Station 308; 2022-12-11 @ 11:42:54;,19428,11-12-22 11:42,PLYMOUTH,KIRK ST & BUTLER PIKE,Death,High,Vehicle with vehicle collision,Residential areas,1
219.142.78.162-10.42.0.211-80-60519-6,40.1685378,-75.4982005,BLACK ROCK RD & S TRAPPE RD;  UPPER PROVIDENCE; Station 325; 2022-12-11 @ 11:51:50;,19468,11-12-22 11:51,UPPER PROVIDENCE,BLACK ROCK RD & S TRAPPE RD,Greviously Injured,Medium,Vehicle with vehicle collision,Residential areas,2
10.42.0.211-47.88.68.21-57241-443-6,40.1795116,-75.2777325,DEKALB PIKE & MORRIS RD; WHITPAIN; 2022-12-11 @ 11:53:55;,19422,11-12-22 11:53,WHITPAIN,DEKALB PIKE & MORRIS RD,Death,Medium,Vehicle with vehicle collision,Residential areas,1
10.42.0.1-10.42.0.42-53-33315-17,40.2413204,-75.2428276,BETHLEHEM PIKE & NORTH WALES RD; MONTGOMERY; 2022-12-11 @ 11:58:38;,19454,11-12-22 11:58,MONTGOMERY,BETHLEHEM PIKE & NORTH WALES RD,Greviously Injured,High,Vehicle with vehicle collision,Other,2
192.229.163.180-10.42.0.211-443-49983-6,40.1617387,-75.3797797,GERMANTOWN PIKE & N PARK AVE; WORCESTER; 2022-12-11 @ 12:01:32;,19403,11-12-22 12:01,WORCESTER,GERMANTOWN PIKE & N PARK AVE,Minor Injury,High,Vehicle with vehicle collision,Office areas,0
172.217.6.227-10.42.0.211-443-37491-6,40.1414828,-75.117142,MORELAND RD & EASTON RD; ABINGTON; 2022-12-11 @ 12:02:22;,19090,11-12-22 12:02,ABINGTON,MORELAND RD & EASTON RD,Death,Medium,Vehicle with vehicle collision,Other,1
10.42.0.151-119.167.164.25-42320-80-6,40.0805395,-75.2997124,FAYETTE ST & E 9TH AVE;  CONSHOHOCKEN; Station 313A; 2022-12-11 @ 12:09:09;,19428,11-12-22 12:09,CONSHOHOCKEN,FAYETTE ST & E 9TH AVE,Greviously Injured,High,Vehicle with vehicle collision,Other,2
10.42.0.211-10.42.0.1-57006-53-17,40.3097481,-75.3373782,COWPATH RD & W RELIANCE RD;  FRANCONIA; Station 339; 2022-12-11 @ 12:15:05;,18964,11-12-22 12:15,FRANCONIA,COWPATH RD & W RELIANCE RD,Death,High,Vehicle with vehicle collision,Office areas,1
180.149.153.187-10.42.0.211-80-59882-6,40.0975985,-75.1536376,KESWICK AVE & E WAVERLY RD;  CHELTENHAM; Station 358A; 2022-12-11 @ 12:18:27;,19038,11-12-22 12:18,CHELTENHAM,KESWICK AVE & E WAVERLY RD,Minor Injury,Medium,Vehicle with vehicle collision, Church areas,0
10.42.0.211-23.21.95.195-57428-443-6,40.0978379,-75.1533665,KESWICK AVE & NEW ST;  CHELTENHAM; Station 358A; 2022-12-11 @ 12:18:27;,19038,11-12-22 12:18,CHELTENHAM,KESWICK AVE & NEW ST,Greviously Injured,High,Vehicle with vehicle collision,Other,2
10.42.0.151-31.13.69.203-34452-443-6,40.1617387,-75.3797797,GERMANTOWN PIKE & N PARK AVE; WORCESTER; 2022-12-11 @ 12:31:17;,19403,11-12-22 12:31,WORCESTER,GERMANTOWN PIKE & N PARK AVE,Minor Injury,High,Collision with roadside objects,Other,0
172.217.7.2-10.42.0.211-443-33400-6,40.1338404,-75.3316975,JOHNSON HWY & COLES BLVD; NORRISTOWN; 2022-12-11 @ 12:34:36-Station:STA27;,19401,11-12-22 12:34,NORRISTOWN,JOHNSON HWY & COLES BLVD,Death,Medium,Rollover,Office areas,1
10.42.0.211-10.42.0.1-57936-53-17,40.1798949,-75.1106756,BROAD ST & W MORELAND AVE;  HATBORO; Station 384; 2022-12-11 @ 12:32:51;,19040,11-12-22 12:32,HATBORO,BROAD ST & W MORELAND AVE,Minor Injury,High,Vehicle with vehicle collision,Office areas,0
10.42.0.211-23.206.173.182-50874-80-6,40.1528726,-75.4137214,CHARIOT LN & EAGLE STREAM DR;  LOWER PROVIDENCE; Station 322; 2022-12-11 @ 12:33:41;,19403,11-12-22 12:33,LOWER PROVIDENCE,CHARIOT LN & EAGLE STREAM DR,Death,Medium,Vehicle with vehicle collision,Office areas,1
202.77.129.161-10.42.0.211-80-48856-6,40.1550603,-75.1022513,DAVISVILLE RD & PENNYPACK RD;  UPPER MORELAND; Station 381; 2022-12-11 @ 12:31:54;,19040,11-12-22 12:31,UPPER MORELAND,DAVISVILLE RD & PENNYPACK RD,Greviously Injured,Medium,Vehicle with vehicle collision,Office areas,2
10.42.0.42-23.208.168.108-33181-443-6,40.2466476,-75.6417829,CHESTNUT ST & N WASHINGTON ST;  POTTSTOWN; Station 329; 2022-12-11 @ 12:31:17;,19464,11-12-22 12:31,POTTSTOWN,CHESTNUT ST & N WASHINGTON ST,Minor Injury,High,Vehicle with vehicle collision,Office areas,0
202.77.129.150-10.42.0.151-80-51630-6,40.1617733,-75.3798431,GERMANTOWN PIKE & VALLEY FORGE RD; WORCESTER; 2022-12-11 @ 12:31:17;,19403,11-12-22 12:31,WORCESTER,GERMANTOWN PIKE & VALLEY FORGE RD,Death,High,Vehicle with vehicle collision,Office areas,1
163.177.151.166-10.42.0.211-443-43511-6,40.254768,-75.6604586,SHOEMAKER RD & ROBINSON ST;  POTTSTOWN; Station 329; 2022-12-11 @ 12:40:09;,19464,11-12-22 12:40,POTTSTOWN,SHOEMAKER RD & ROBINSON ST,Greviously Injured,Medium,Collision with roadside objects,Other,2
10.42.0.1-10.42.0.42-53-54551-17,40.131869,-75.328861,JOHNSON HWY & PINE ST; NORRISTOWN; 2022-12-11 @ 12:34:36-Station:STA27;,19401,11-12-22 12:34,NORRISTOWN,JOHNSON HWY & PINE ST,Death,High,Collision with roadside objects,Other,1
10.42.0.151-31.13.80.5-52238-443-6,40.1207169,-75.0748772,WELSH RD;  LOWER MORELAND; Station 355; 2022-12-11 @ 12:42:03;,,11-12-22 12:42,LOWER MORELAND,WELSH RD,Minor Injury,High,Vehicle with vehicle collision,Other,0
10.42.0.211-23.208.168.108-46513-443-6,40.1068386,-75.1238039,OLD YORK RD & HARTE RD; ABINGTON; 2022-12-11 @ 12:41:54;,19046,11-12-22 12:41,ABINGTON,OLD YORK RD & HARTE RD,Greviously Injured,Medium,Collision with roadside objects,Office areas,2
10.42.0.1-10.42.0.42-53-58530-17,40.1349001,-75.0618234,HUNTINGDON PIKE & CATHEDRAL RD;  BRYN ATHYN; Station 355; 2022-12-11 @ 12:44:32;,19006,11-12-22 12:44,BRYN ATHYN,HUNTINGDON PIKE & CATHEDRAL RD,Minor Injury,High,Vehicle with vehicle collision,Office areas,0
10.42.0.42-106.11.93.16-46099-443-6,40.1199455,-75.3383214,DEKALB ST & E ELM ST;  NORRISTOWN; Station 308A; 2022-12-11 @ 12:50:16;,19401,11-12-22 12:50,NORRISTOWN,DEKALB ST & E ELM ST,Greviously Injured,Medium,Vehicle with vehicle collision,Office areas,2
10.42.0.211-31.13.80.52-33903-80-6,40.136459,-75.127114,PIERCE AVE & RESERVOIR AVE;  ABINGTON; Station 381; 2022-12-11 @ 12:51:24;,19090,11-12-22 12:51,ABINGTON,PIERCE AVE & RESERVOIR AVE,Minor Injury,Medium,Vehicle with vehicle collision,Office areas,0
10.42.0.211-34.204.254.35-50780-443-6,40.1228913,-75.0641492,HUNTINGDON PIKE & WYNKOOP AVE;  LOWER MORELAND; Station 355; 2022-12-11 @ 12:54:38;,19006,11-12-22 12:54,LOWER MORELAND,HUNTINGDON PIKE & WYNKOOP AVE,Death,Medium,Vehicle with vehicle collision, Church areas,1
10.42.0.151-72.21.207.148-35575-443-6,40.1192546,-75.2362381,FLOURTOWN RD & RR OVERPASS; WHITEMARSH; 2022-12-11 @ 12:52:47;,,11-12-22 12:52,WHITEMARSH,FLOURTOWN RD & RR OVERPASS,Minor Injury,High,Vehicle with vehicle collision,Office areas,0
175.100.207.233-10.42.0.211-80-51341-6,40.1017766,-75.25378,FLOURTOWN RD; WHITEMARSH; 2022-12-11 @ 12:56:53-Station:STA29;,,11-12-22 12:56,WHITEMARSH,FLOURTOWN RD,Death,Medium,Vehicle with vehicle collision,Residential areas,1
10.42.0.1-10.42.0.42-53-20158-17,40.4017627,-75.4861776,MORGAN HILL DR & HAYWARD AVE;  UPPER HANOVER; Station 369; 2022-12-11 @ 13:00:38;,18073,11-12-22 13:00,UPPER HANOVER,MORGAN HILL DR & HAYWARD AVE,Greviously Injured,High,Collision with pedestrians,School areas,2
10.42.0.211-64.71.142.110-41483-443-6,40.3116295,-75.3310962,SUMMIT ST & COLONIAL AVE;  FRANCONIA; Station 339; 2022-12-11 @ 12:57:49;,18964,11-12-22 12:57,FRANCONIA,SUMMIT ST & COLONIAL AVE,Minor Injury,High,Vehicle with vehicle collision,Office areas,0
172.217.9.234-10.42.0.211-443-55747-6,40.246831,-75.2924826,MAIN ST & S MITCHELL AVE;  LANSDALE; Station 345B; 2022-12-11 @ 13:01:10;,19446,11-12-22 13:01,LANSDALE,MAIN ST & S MITCHELL AVE,Death,Medium,Collision with roadside objects,Other,1
10.42.0.211-106.11.129.143-47982-80-6,40.2502049,-75.3129519,WESTHAMPTON WAY & TROXEL RD;  TOWAMENCIN; Station 345B; 2022-12-11 @ 13:01:51;,19446,11-12-22 13:01,TOWAMENCIN,WESTHAMPTON WAY & TROXEL RD,Greviously Injured,High,Vehicle with vehicle collision,Other,2
10.42.0.151-10.42.0.1-3686-53-17,40.1233907,-75.3369417,E WOOD ST & POWELL ST; NORRISTOWN; 2022-12-11 @ 13:01:01;,19401,11-12-22 13:01,NORRISTOWN,E WOOD ST & POWELL ST,Death,Medium,Collision with roadside objects,Other,1
10.42.0.211-111.206.25.159-48436-80-6,40.1198332,-75.1253492,WYNDMOOR CIR & DEAD END; ABINGTON; 2022-12-11 @ 13:04:21-Station:STA200;,,11-12-22 13:04,ABINGTON,WYNDMOOR CIR & DEAD END,Minor Injury,High,Vehicle with vehicle collision,Other,0
10.42.0.211-104.244.42.66-34952-443-6,40.1517741,-75.3365695,GERMANTOWN PIKE & RR CROSSING;  EAST NORRITON; Station 308B; 2022-12-11 @ 13:05:12;,,11-12-22 13:05,EAST NORRITON,GERMANTOWN PIKE & RR CROSSING,Greviously Injured,High,Vehicle with vehicle collision,Office areas,2
10.42.0.211-61.174.50.211-38024-8080-6,40.1141098,-75.1814483,GARTH RD & GOLF RD;  SPRINGFIELD; Station 311; 2022-12-11 @ 13:02:34;,19075,11-12-22 13:02,SPRINGFIELD,GARTH RD & GOLF RD,Minor Injury,Medium,Collision with pedestrians,Office areas,0
198.11.189.2-10.42.0.211-443-40520-6,40.150008,-75.3127546,SYCAMORE LN & STONEY CREEK RD;  EAST NORRITON; Station 308; 2022-12-11 @ 13:17:41;,19401,11-12-22 13:17,EAST NORRITON,SYCAMORE LN & STONEY CREEK RD,Death,High,Vehicle with vehicle collision,Office areas,1
10.42.0.211-112.80.248.187-50806-80-6,40.1007482,-75.2151078,WISSAHICKON AVE & ROSE LN;  SPRINGFIELD; Station 311; 2022-12-11 @ 13:16:51;,19031,11-12-22 13:16,SPRINGFIELD,WISSAHICKON AVE & ROSE LN,Minor Injury,High,Vehicle with vehicle collision,Office areas,0
192.229.163.180-10.42.0.151-443-53680-6,40.0056436,-75.2219357,BELMONT AVE & ST ASAPHS RD;  LOWER MERION; Station 313; 2022-12-11 @ 13:21:15;,19004,11-12-22 13:21,LOWER MERION,BELMONT AVE & ST ASAPHS RD,Death,Medium,Vehicle with vehicle collision,Office areas,1
172.217.12.195-10.42.0.151-443-47206-6,40.2290259,-75.6374854,KEIM ST & W MEADOWBROOK RD;  CHESTER COUNTY; Station 3A84; 2022-12-11 @ 13:23:38;,19465,11-12-22 13:23,CHESTER COUNTY,KEIM ST & W MEADOWBROOK RD,Greviously Injured,High,Vehicle with vehicle collision,Office areas,2
10.42.0.151-121.29.54.163-36792-80-6,40.1252484,-75.336178,FORNANCE ST & LOCUST ST;  NORRISTOWN; Station 308A; 2022-12-11 @ 13:30:33;,19401,11-12-22 13:30,NORRISTOWN,FORNANCE ST & LOCUST ST,Minor Injury,High,Collision with pedestrians,Office areas,0
172.217.12.195-10.42.0.211-443-43377-6,40.095171,-75.414699,1ST AVE & FREEDOM DR;  UPPER MERION; Station 317; 2022-12-11 @ 13:26:32;,19406,11-12-22 13:26,UPPER MERION,1ST AVE & FREEDOM DR,Greviously Injured,Medium,Vehicle with vehicle collision,Other,2
157.240.2.20-10.42.0.42-443-48725-6,39.9975395,-75.2599846,BEDFORD PL & E WYNNEWOOD RD; LOWER MERION; 2022-12-11 @ 13:28:36;,19066,11-12-22 13:28,LOWER MERION,BEDFORD PL & E WYNNEWOOD RD,Minor Injury,High,Vehicle with vehicle collision,Other,0
10.42.0.151-90.198.152.86-43477-60765-17,40.2118999,-75.4948307,RIDGE PIKE & KLINE RD; UPPER PROVIDENCE; 2022-12-11 @ 13:30:18;,19468,11-12-22 13:30,UPPER PROVIDENCE,RIDGE PIKE & KLINE RD,Greviously Injured,Medium,Vehicle with vehicle collision,Residential areas,2
10.42.0.42-23.194.140.226-54739-80-6,40.2451166,-75.6460071,HIGH ST & S EVANS ST;  POTTSTOWN; Station 329; 2022-12-11 @ 13:31:54;,19464,11-12-22 13:31,POTTSTOWN,HIGH ST & S EVANS ST,Minor Injury,High,Vehicle with vehicle collision,Other,0
172.217.10.238-10.42.0.151-443-55682-6,40.0781228,-75.0888912,FOX ST;  ROCKLEDGE; Station 382; 2022-12-11 @ 13:32:30;,19046,11-12-22 13:32,ROCKLEDGE,FOX ST,Death,High,Collision with roadside objects,Other,1
10.42.0.211-104.94.222.37-36099-80-6,40.1660423,-75.0867478,DAVISVILLE RD & BYBERRY RD; UPPER MORELAND; 2022-12-11 @ 13:34:52;,19040,11-12-22 13:34,UPPER MORELAND,DAVISVILLE RD & BYBERRY RD,Minor Injury,Medium,Vehicle with vehicle collision,Other,0
8.0.6.4-8.6.0.1-0-0-0,40.2513703,-75.4657098,PERKIOMEN AVE & 3RD ST;  SCHWENKSVILLE; Station 331; 2022-12-11 @ 13:48:20;,19473,11-12-22 13:48,SCHWENKSVILLE,PERKIOMEN AVE & 3RD ST,Death,High,Vehicle with vehicle collision,Other,1
202.77.129.150-10.42.0.211-443-56822-6,40.1440629,-75.1940993,CORY DR & PINETREE PL;  UPPER DUBLIN; Station 351; 2022-12-11 @ 13:47:50;,19034,11-12-22 13:47,UPPER DUBLIN,CORY DR & PINETREE PL,Greviously Injured,Medium,Vehicle with vehicle collision, Industrial areas,2
10.42.0.151-31.13.71.52-33244-443-6,40.1196045,-75.2849004,GERMANTOWN PIKE & ATRIUM WAY;  PLYMOUTH; Station 308; 2022-12-11 @ 13:49:01;,19462,11-12-22 13:49,PLYMOUTH,GERMANTOWN PIKE & ATRIUM WAY,Minor Injury,High,Vehicle with vehicle collision, Industrial areas,0
182.22.25.124-10.42.0.211-443-54058-6,40.2446583,-75.5338868,FRANKLIN CT & MADISON CT;  LIMERICK; Station 324A; 2022-12-11 @ 13:47:21;,19468,11-12-22 13:47,LIMERICK,FRANKLIN CT & MADISON CT,Death,High,Collision with roadside objects, Church areas,1
10.42.0.211-10.42.0.1-23319-53-17,40.254768,-75.6604586,SHOEMAKER RD & ROBINSON ST;  POTTSTOWN; Station 329; 2022-12-11 @ 14:00:57;,19464,11-12-22 14:00,POTTSTOWN,SHOEMAKER RD & ROBINSON ST,Greviously Injured,Medium,Vehicle with vehicle collision,Other,2
10.42.0.211-103.43.91.12-44085-443-6,40.2290075,-75.3878525,SCHUYLKILL RD & RAMP RT724 TO RT100 SB; CHESTER COUNTY; 2022-12-11 @ 13:57:14;,,11-12-22 13:57,CHESTER COUNTY,SCHUYLKILL RD & RAMP RT724 TO RT100 SB,Death,High,Vehicle with vehicle collision,Other,1
10.42.0.211-123.125.115.190-32880-80-6,40.1003438,-75.2939548,CHEMICAL RD & GALLAGHER RD; PLYMOUTH; 2022-12-11 @ 14:06:20-Station:STA43;,19462,11-12-22 14:06,PLYMOUTH,CHEMICAL RD & GALLAGHER RD,Minor Injury,High,Vehicle with vehicle collision,Office areas,0
172.217.12.208-10.42.0.151-443-48835-6,40.2442013,-75.582403,HIGH ST & S PARK RD;  LOWER POTTSGROVE; Station 329; 2022-12-11 @ 14:10:08;,19464,11-12-22 14:10,LOWER POTTSGROVE,HIGH ST & S PARK RD,Greviously Injured,Medium,Vehicle with vehicle collision,Office areas,2
10.42.0.151-72.21.206.121-56988-443-6,40.2025969,-75.4255965,VILLAGE AVE & WISTERIA WAY;  SKIPPACK; Station 336; 2022-12-11 @ 14:14:19;,19426,11-12-22 14:14,SKIPPACK,VILLAGE AVE & WISTERIA WAY,Minor Injury,High,Vehicle with vehicle collision,Residential areas,0
173.194.66.188-10.42.0.211-5228-36343-6,40.2102834,-75.5699154,CHURCH RD & MAIN ST; LIMERICK; 2022-12-11 @ 14:15:52;,19468,11-12-22 14:15,LIMERICK,CHURCH RD & MAIN ST,Death,High,Vehicle with vehicle collision, Industrial areas,1
10.42.0.151-119.146.74.33-38817-443-6,40.0833993,-75.2929707,E 14TH AVE & HALLOWELL ST; WHITEMARSH; 2022-12-11 @ 14:16:26;,19428,11-12-22 14:16,WHITEMARSH,E 14TH AVE & HALLOWELL ST,Minor Injury,Medium,Vehicle with vehicle collision,Office areas,0
182.254.5.234-10.42.0.211-80-47925-6,40.1050905,-75.3384238,4TH ST & HOLSTEIN ST;  BRIDGEPORT; Station 317; 2022-12-11 @ 14:19:32;,19405,11-12-22 14:19,BRIDGEPORT,4TH ST & HOLSTEIN ST,Death,High,Vehicle with vehicle collision,Other,1
10.42.0.151-52.26.15.212-55002-443-6,40.2254016,-75.4469886,IRON BRIDGE DR & RAHNS RD;  PERKIOMEN; Station 324; 2022-12-11 @ 14:20:00;,,11-12-22 14:20,PERKIOMEN,IRON BRIDGE DR & RAHNS RD,Greviously Injured,Medium,Vehicle with vehicle collision,Other,2
10.42.0.211-104.193.88.109-38516-80-6,40.1302626,-75.3528617,JAMES ST & SELMA ST; NORRISTOWN; 2022-12-11 @ 14:16:25-Station:STA27;,19401,11-12-22 14:16,NORRISTOWN,JAMES ST & SELMA ST,Minor Injury,Medium,Vehicle with vehicle collision,Residential areas,0
184.31.6.135-10.42.0.211-443-51586-6,40.0813544,-75.2988945,FAYETTE ST & W 10TH AVE; CONSHOHOCKEN; 2022-12-11 @ 14:19:13;,19428,11-12-22 14:19,CONSHOHOCKEN,FAYETTE ST & W 10TH AVE,Minor Injury,High,Vehicle with vehicle collision,Office areas,0
10.42.0.211-23.206.166.62-58752-80-6,40.1938129,-75.2421421,SUMNEYTOWN PIKE & STONEBRIDGE RD;  LOWER GWYNEDD; Station 351; 2022-12-11 @ 14:23:00;,19002,11-12-22 14:23,LOWER GWYNEDD,SUMNEYTOWN PIKE & STONEBRIDGE RD,Death,High,Collision with roadside objects,Residential areas,1
172.217.8.4-10.42.0.42-443-33732-6,40.2456734,-75.2796667,BROAD ST & E 6TH ST;  LANSDALE; Station 345; 2022-12-11 @ 14:28:53;,19446,11-12-22 14:28,LANSDALE,BROAD ST & E 6TH ST,Greviously Injured,Medium,Collision with roadside objects,Office areas,2
10.42.0.151-52.84.134.181-48065-443-6,40.0809133,-75.2026651,STENTON AVE & E EVERGREEN AVE;  SPRINGFIELD; Station 311; 2022-12-11 @ 14:35:36;,19038,11-12-22 14:35,SPRINGFIELD,STENTON AVE & E EVERGREEN AVE,Death,High,Collision with roadside objects, Church areas,1
172.217.10.14-10.42.0.151-443-39108-6,40.2261232,-75.2178868,SAVORY LN & REGENCY DR;  MONTGOMERY; Station 345A; 2022-12-11 @ 14:32:50;,19454,11-12-22 14:32,MONTGOMERY,SAVORY LN & REGENCY DR,Minor Injury,High,Collision with pedestrians,Residential areas,0
172.217.9.234-10.42.0.42-443-57451-6,40.0864554,-75.1573831,RICES MILL RD & PANTHER RD; CHELTENHAM; 2022-12-11 @ 14:32:55;,19095,11-12-22 14:32,CHELTENHAM,RICES MILL RD & PANTHER RD,Greviously Injured,Medium,Vehicle with vehicle collision,School areas,2
174.35.73.78-10.42.0.211-80-57910-6,40.1224741,-75.3586461,W AIRY ST & HAMILTON ST; NORRISTOWN; 2022-12-11 @ 14:32:51;,19401,11-12-22 14:32,NORRISTOWN,W AIRY ST & HAMILTON ST,Minor Injury,High,Vehicle with vehicle collision, Hospital areas,0
222.73.28.96-10.42.0.211-80-47961-6,40.118372,-75.351878,MAIN ST & GEORGE ST;  NORRISTOWN; Station 308A; 2022-12-11 @ 14:38:19;,19401,11-12-22 14:38,NORRISTOWN,MAIN ST & GEORGE ST,Death,High,Collision with pedestrians,Other,1
192.229.173.173-10.42.0.211-80-49942-6,39.9866944,-75.2569627,CITY AVE & HOLLINGSWORTH RD;  LOWER MERION; Station 313; 2022-12-11 @ 14:42:11;,19151,11-12-22 14:42,LOWER MERION,CITY AVE & HOLLINGSWORTH RD,Minor Injury,Medium,Vehicle with vehicle collision,School areas,0
10.42.0.151-10.42.0.1-39491-53-17,40.1142023,-75.3268041,NEW HOPE ST & CEDAR LN;  NORRISTOWN; Station 308A; 2022-12-11 @ 14:47:51;,19401,11-12-22 14:47,NORRISTOWN,NEW HOPE ST & CEDAR LN,Death,High,Vehicle with vehicle collision,Other,1
183.79.250.123-10.42.0.211-443-33969-6,40.1121357,-75.3209352,PENN RD & FAIRFIELD RD;  PLYMOUTH; Station 308; 2022-12-11 @ 14:46:58;,19462,11-12-22 14:46,PLYMOUTH,PENN RD & FAIRFIELD RD,Greviously Injured,Medium,Vehicle with vehicle collision, Industrial areas,2
180.76.147.97-10.42.0.211-80-54667-6,40.1847975,-75.286879,TWIN SILO DR & MORRIS RD;  WHITPAIN; Station 385; 2022-12-11 @ 14:52:41;,19422,11-12-22 14:52,WHITPAIN,TWIN SILO DR & MORRIS RD,Minor Injury,Medium,Vehicle with vehicle collision, Church areas,0
10.42.0.211-103.235.46.39-55844-80-6,40.1087245,-75.1927332,RAMP RT309 SB TO RT73 & CHURCH RD; SPRINGFIELD; 2022-12-11 @ 14:55:05;,,11-12-22 14:55,SPRINGFIELD,RAMP RT309 SB TO RT73 & CHURCH RD,Greviously Injured,High,Vehicle with vehicle collision,Office areas,2
203.205.158.52-10.42.0.151-80-57089-6,40.1198332,-75.1253492,MORELAND RD & RR CROSSING; ABINGTON; 2022-12-11 @ 14:57:02-Station:STA500;,,11-12-22 14:57,ABINGTON,MORELAND RD & RR CROSSING,Minor Injury,High,Vehicle with vehicle collision,Other,0
198.11.188.78-10.42.0.211-443-59826-6,40.0619215,-75.1176549,COVENTRY AVE & NEW SECOND ST; CHELTENHAM; 2022-12-11 @ 15:00:07;,19027,11-12-22 15:00,CHELTENHAM,COVENTRY AVE & NEW SECOND ST,Greviously Injured,Medium,Collision with roadside objects,Office areas,2
209.85.144.157-10.42.0.42-443-60670-6,40.1305332,-75.4049379,EGYPT RD & WEDGEWOOD WAY;  LOWER PROVIDENCE; Station 322A; 2022-12-11 @ 15:02:20;,19403,11-12-22 15:02,LOWER PROVIDENCE,EGYPT RD & WEDGEWOOD WAY,Minor Injury,High,Collision with pedestrians,Office areas,0
175.100.207.232-10.42.0.151-80-48795-6,40.1130531,-75.1687842,MT CARMEL AVE & STATION AVE; ABINGTON; 2022-12-11 @ 15:05:06-Station:STA400;,19038,11-12-22 15:05,ABINGTON,MT CARMEL AVE & STATION AVE,Death,High,Vehicle with vehicle collision,Office areas,1
8.41.222.241-10.42.0.151-443-59907-6,40.2102834,-75.5699154,MAIN ST & CHURCH RD; LIMERICK; 2022-12-11 @ 15:05:05;,19468,11-12-22 15:05,LIMERICK,MAIN ST & CHURCH RD,Minor Injury,Medium,Vehicle with vehicle collision,Residential areas,0
208.80.154.224-10.42.0.211-443-58761-6,40.1058897,-75.0847407,HUNTINGDON PIKE & MOREDON RD;  ABINGTON; Station 382; 2022-12-11 @ 15:07:45;,19006,11-12-22 15:07,ABINGTON,HUNTINGDON PIKE & MOREDON RD,Death,High,Collision with roadside objects,Office areas,1
216.58.219.234-10.42.0.151-443-40559-6,40.075421,-75.28826,HECTOR ST & LEE ST; WHITEMARSH; 2022-12-11 @ 15:08:24-Station:STA45;,19428,11-12-22 15:08,WHITEMARSH,HECTOR ST & LEE ST,Greviously Injured,High,Vehicle with vehicle collision,Other,2
172.217.10.142-10.42.0.151-80-41660-6,40.312017,-75.3252905,MAIN ST & CENTRAL AVE; SOUDERTON; 2022-12-11 @ 15:09:15-Station:STA74;,18964,11-12-22 15:09,SOUDERTON,MAIN ST & CENTRAL AVE,Minor Injury,Medium,Vehicle with vehicle collision, Industrial areas,0
172.217.10.129-10.42.0.42-443-43321-6,40.1025302,-75.2129155,BETHLEHEM PIKE & E WISSAHICKON AVE; SPRINGFIELD; 2022-12-11 @ 15:12:51-Station:STA6;,19031,11-12-22 15:12,SPRINGFIELD,BETHLEHEM PIKE & E WISSAHICKON AVE,Minor Injury,High,Vehicle with vehicle collision,Other,0
10.42.0.211-77.234.41.79-34561-443-6,40.1234655,-75.0432767,PHILMONT AVE & TOMLINSON RD; LOWER MORELAND; 2022-12-11 @ 15:20:29;,19006,11-12-22 15:20,LOWER MORELAND,PHILMONT AVE & TOMLINSON RD,Death,Medium,Vehicle with vehicle collision,Office areas,1
10.42.0.42-52.84.1.250-35752-443-6,40.312017,-75.3252905,MAIN ST & CENTRAL AVE;  SOUDERTON; Station 339; 2022-12-11 @ 15:26:05;,18964,11-12-22 15:26,SOUDERTON,MAIN ST & CENTRAL AVE,Greviously Injured,High,Vehicle with vehicle collision,Office areas,2
157.240.2.35-10.42.0.211-443-51499-6,40.130215,-75.3824469,BERKLEY RD & VARNUM RD; WEST NORRITON; 2022-12-11 @ 15:26:34-Station:STA46;,19403,11-12-22 15:26,WEST NORRITON,BERKLEY RD & VARNUM RD,Death,High,Vehicle with vehicle collision,Office areas,1
172.217.10.238-10.42.0.151-443-53490-6,40.135719,-75.114636,OLD YORK RD & PARKVIEW AVE; ABINGTON; 2022-12-11 @ 15:29:22;,19001,11-12-22 15:29,ABINGTON,OLD YORK RD & PARKVIEW AVE,Minor Injury,Medium,Vehicle with vehicle collision,Other,0
10.42.0.151-10.42.0.1-15042-53-17,40.1147453,-75.2854469,GERMANTOWN PIKE & LAUNFALL RD;  PLYMOUTH; Station 308; 2022-12-11 @ 15:32:09;,19462,11-12-22 15:32,PLYMOUTH,GERMANTOWN PIKE & LAUNFALL RD,Greviously Injured,High,Vehicle with vehicle collision,Office areas,2
10.42.0.211-10.42.0.1-55349-53-17,40.1274502,-75.3618445,MARSHALL ST & N MONTGOMERY AVE; WEST NORRITON; 2022-12-11 @ 15:30:40;,19403,11-12-22 15:30,WEST NORRITON,MARSHALL ST & N MONTGOMERY AVE,Minor Injury,Medium,Collision with roadside objects,Office areas,0
10.42.0.151-106.11.95.2-38714-443-6,40.0972222,-75.3761952,SCHUYLKILL EXPY & RR OVERPASS; UPPER MERION; 2022-12-11 @ 15:41:06;,,11-12-22 15:41,UPPER MERION,SCHUYLKILL EXPY & RR OVERPASS,Death,Medium,Collision with roadside objects,Office areas,1
222.73.28.96-10.42.0.151-80-55803-6,40.0812601,-75.1370254,RT309 EXPY & S EASTON RD OVERPASS; CHELTENHAM; 2022-12-11 @ 15:45:58;,,11-12-22 15:45,CHELTENHAM,RT309 EXPY & S EASTON RD OVERPASS,Minor Injury,High,Collision with roadside objects,Other,0
202.77.129.150-10.42.0.211-80-53575-6,40.1805757,-75.1333253,HORSHAM RD & DRESHER RD; HORSHAM; 2022-12-11 @ 15:42:03;,19044,11-12-22 15:42,HORSHAM,HORSHAM RD & DRESHER RD,Death,High,Vehicle with vehicle collision,Other,1
173.241.242.143-10.42.0.211-443-58003-6,40.2859406,-75.6382657,UPLAND SQUARE DR & RT100 SB; UPPER POTTSGROVE; 2022-12-11 @ 15:45:01;,,11-12-22 15:45,UPPER POTTSGROVE,UPLAND SQUARE DR & RT100 SB,Greviously Injured,Medium,Collision with pedestrians,  Recreational areas,2
172.217.10.10-10.42.0.211-443-44804-6,40.0812601,-75.1370254,RT309 EXPY & S EASTON RD OVERPASS; CHELTENHAM; 2022-12-11 @ 15:47:46;,,11-12-22 15:47,CHELTENHAM,RT309 EXPY & S EASTON RD OVERPASS,Minor Injury,High,Vehicle with vehicle collision, Church areas,0
172.217.9.238-10.42.0.151-443-39887-6,40.135788,-75.5076694,BRIDGE ST & TOWPATH; UPPER PROVIDENCE; 2022-12-11 @ 15:48:02;,19453,11-12-22 15:48,UPPER PROVIDENCE,BRIDGE ST & TOWPATH,Greviously Injured,High,Collision with pedestrians,  Recreational areas,2
10.42.0.151-103.235.46.39-54922-80-6,40.1160864,-75.0521552,HIGH RD & VALLEY VIEW DR;  LOWER MORELAND; Station 355; 2022-12-11 @ 15:46:34;,19006,11-12-22 15:46,LOWER MORELAND,HIGH RD & VALLEY VIEW DR,Minor Injury,Medium,Vehicle with vehicle collision,School areas,0
10.42.0.211-98.139.199.204-56421-443-6,40.30479,-75.3638279,HARLEYSVILLE PIKE;  SOUDERTON; Station 339; 2022-12-11 @ 15:48:50;,,11-12-22 15:48,SOUDERTON,HARLEYSVILLE PIKE,Greviously Injured,High,Collision with pedestrians, Church areas,2
10.42.0.151-104.244.43.131-48445-443-6,40.30479,-75.3638279,HARLEYSVILLE PIKE; SOUDERTON; 2022-12-11 @ 15:48:36-Station:STA74;,,11-12-22 15:48,SOUDERTON,HARLEYSVILLE PIKE,Minor Injury,High,Vehicle with vehicle collision,Office areas,0
174.35.73.135-10.42.0.211-80-45965-6,40.2145813,-75.2892004,SUMNEYTOWN PIKE & DICKERSON RD; UPPER GWYNEDD; 2022-12-11 @ 15:47:10;,19454,11-12-22 15:47,UPPER GWYNEDD,SUMNEYTOWN PIKE & DICKERSON RD,Death,Medium,Vehicle with vehicle collision,Residential areas,1
10.42.0.211-14.29.93.254-47365-80-6,40.3156427,-75.3313895,HARLEYSVILLE PIKE & E RELIANCE RD; SOUDERTON; 2022-12-11 @ 15:49:16;,18964,11-12-22 15:49,SOUDERTON,HARLEYSVILLE PIKE & E RELIANCE RD,Minor Injury,High,Vehicle with vehicle collision,Other,0
10.42.0.211-113.200.98.200-60730-80-6,40.0296652,-75.3242811,MONTGOMERY AVE & AIRDALE RD;  LOWER MERION; Station 313; 2022-12-11 @ 15:55:15;,19010,11-12-22 15:55,LOWER MERION,MONTGOMERY AVE & AIRDALE RD,Death,Medium,Vehicle with vehicle collision,Other,1
10.42.0.211-103.235.46.212-55442-443-6,40.1204766,-75.3486024,CHAIN ST & W BLACKBERRY ALY;  NORRISTOWN; Station 308A; 2022-12-11 @ 15:53:38;,19401,11-12-22 15:53,NORRISTOWN,CHAIN ST & W BLACKBERRY ALY,Greviously Injured,Medium,Vehicle with vehicle collision, Industrial areas,2
10.42.0.211-111.206.25.159-58991-80-6,40.2794736,-75.3877094,MAIN ST & MAPLE AVE;  LOWER SALFORD; Station 344; 2022-12-11 @ 15:59:50;,19438,11-12-22 15:59,LOWER SALFORD,MAIN ST & MAPLE AVE,Minor Injury,High,Vehicle with vehicle collision, Church areas,0
10.42.0.211-104.192.110.245-38593-443-6,40.2054916,-75.1686598,EVERGREEN RD & WILLOWBROOK RD;  HORSHAM; Station 352; 2022-12-11 @ 16:04:10;,19044,11-12-22 16:04,HORSHAM,EVERGREEN RD & WILLOWBROOK RD,Minor Injury,High,Vehicle with vehicle collision,Office areas,0
10.42.0.151-10.42.0.1-11054-53-17,40.1524351,-75.1356188,WELSH RD & CARLSON DR;  UPPER DUBLIN; Station 381; 2022-12-11 @ 16:02:18;,19090,11-12-22 16:02,UPPER DUBLIN,WELSH RD & CARLSON DR,Greviously Injured,Medium,Vehicle with vehicle collision,Office areas,2
172.217.10.10-10.42.0.42-443-53910-6,40.1305332,-75.4049379,EGYPT RD & WEDGEWOOD WAY; LOWER PROVIDENCE; 2022-12-11 @ 16:03:32;,19403,11-12-22 16:03,LOWER PROVIDENCE,EGYPT RD & WEDGEWOOD WAY,Minor Injury,High,Vehicle with vehicle collision,Office areas,0
162.208.22.39-10.42.0.211-443-56817-6,40.1524351,-75.1356188,WELSH RD & CARLSON DR; UPPER DUBLIN; 2022-12-11 @ 16:05:23;,19090,11-12-22 16:05,UPPER DUBLIN,WELSH RD & CARLSON DR,Death,High,Vehicle with vehicle collision,Other,1
182.22.31.252-10.42.0.211-443-54135-6,40.2624394,-75.2714188,COWPATH RD & PINE ST; HATFIELD TOWNSHIP; 2022-12-11 @ 16:02:11;,19440,11-12-22 16:02,HATFIELD TOWNSHIP,COWPATH RD & PINE ST,Minor Injury,Medium,Vehicle with vehicle collision,Office areas,0
10.42.0.151-10.42.0.1-29037-53-17,40.1793752,-75.2362381,MCKEAN RD & RT309 OVERPASS; LOWER GWYNEDD; 2022-12-11 @ 16:06:19-Station:STA7;,,11-12-22 16:06,LOWER GWYNEDD,MCKEAN RD & RT309 OVERPASS,Death,High,Vehicle with vehicle collision,Other,1
10.42.0.211-104.88.106.16-41251-80-6,40.1793752,-75.2362381,MCKEAN RD & RT309 OVERPASS;  LOWER GWYNEDD; Station 351; 2022-12-11 @ 16:06:11;,,11-12-22 16:06,LOWER GWYNEDD,MCKEAN RD & RT309 OVERPASS,Greviously Injured,Medium,Rollover, Industrial areas,2
10.42.0.211-54.192.38.154-53346-443-6,40.0811951,-75.1332615,W CHURCH RD;  CHELTENHAM; Station 358; 2022-12-11 @ 16:10:26;,19095,11-12-22 16:10,CHELTENHAM,W CHURCH RD,Minor Injury,Medium,Collision with roadside objects,Residential areas,0
172.217.10.46-10.42.0.151-443-48149-6,40.0837614,-75.1422046,W CHURCH RD & WASHINGTON LN; CHELTENHAM; 2022-12-11 @ 16:10:41;,19095,11-12-22 16:10,CHELTENHAM,W CHURCH RD & WASHINGTON LN,Greviously Injured,High,Vehicle with vehicle collision,Other,2
172.217.12.205-10.42.0.42-443-42910-6,40.0966894,-75.2674978,GERMANTOWN PIKE & FAIRWAY RD; WHITEMARSH; 2022-12-11 @ 16:09:35;,19462,11-12-22 16:09,WHITEMARSH,GERMANTOWN PIKE & FAIRWAY RD,Minor Injury,High,Vehicle with vehicle collision,Other,0
10.42.0.151-52.84.142.16-45475-443-6,40.0811951,-75.1332615,W CHURCH RD; CHELTENHAM; 2022-12-11 @ 16:11:49-Station:STA5;,19095,11-12-22 16:11,CHELTENHAM,W CHURCH RD,Greviously Injured,Medium,Vehicle with vehicle collision,Other,2
10.42.0.211-52.84.29.55-45336-443-6,40.2890267,-75.3995896,MAIN ST & OLD SUMNEYTOWN PIKE;  LOWER SALFORD; Station 344; 2022-12-11 @ 16:19:06;,19438,11-12-22 16:19,LOWER SALFORD,MAIN ST & OLD SUMNEYTOWN PIKE,Minor Injury,High,Collision with pedestrians,Other,0
10.42.0.42-74.119.119.68-33361-443-6,40.1320369,-75.3773048,MAIN ST & LIBERTY AVE; WEST NORRITON; 2022-12-11 @ 16:18:30-Station:STA46;,19403,11-12-22 16:18,WEST NORRITON,MAIN ST & LIBERTY AVE,Death,High,Collision with pedestrians,Other,1
10.42.0.211-10.42.0.1-32642-53-17,40.1546984,-75.1392426,WELSH RD & COMPUTER AVE; UPPER MORELAND; 2022-12-11 @ 16:20:53;,19090,11-12-22 16:20,UPPER MORELAND,WELSH RD & COMPUTER AVE,Minor Injury,Medium,Vehicle with vehicle collision,Residential areas,0
180.76.147.97-10.42.0.42-80-34854-6,40.1546984,-75.1392426,WELSH RD & COMPUTER AVE; UPPER MORELAND; 2022-12-11 @ 16:19:00;,19090,11-12-22 16:19,UPPER MORELAND,WELSH RD & COMPUTER AVE,Death,High,Vehicle with vehicle collision,Office areas,1
172.217.10.110-10.42.0.151-443-38465-6,40.02461,-75.3247469,LANCASTER AVE & WATER ST; LOWER MERION; 2022-12-11 @ 16:30:17;,19010,11-12-22 16:30,LOWER MERION,LANCASTER AVE & WATER ST,Greviously Injured,High,Collision with pedestrians,Office areas,2
172.217.10.66-10.42.0.151-443-36895-6,40.2220947,-75.5658544,EVANSBROOKE LN & LIMERICK CENTER RD;  LIMERICK; Station 324A; 2022-12-11 @ 16:35:30;,19464,11-12-22 16:35,LIMERICK,EVANSBROOKE LN & LIMERICK CENTER RD,Minor Injury,Medium,Collision with pedestrians,Other,0
10.42.0.211-10.42.0.1-46499-53-17,40.2161897,-75.2387945,ARBOUR GREEN CIR & CLOVER LEAF LN; MONTGOMERY; 2022-12-11 @ 16:32:13-Station:STA18;,18936,11-12-22 16:32,MONTGOMERY,ARBOUR GREEN CIR & CLOVER LEAF LN,Minor Injury,High,Collision with pedestrians,Other,0
198.11.132.53-10.42.0.211-443-57572-6,40.3394393,-75.4556002,GERYVILLE PIKE & WOODRIDGE DR; MARLBOROUGH; 2022-12-11 @ 16:33:38-Station:STA42;,18054,11-12-22 16:33,MARLBOROUGH,GERYVILLE PIKE & WOODRIDGE DR,Death,Medium,Vehicle with vehicle collision,Office areas,1
10.42.0.151-121.12.98.63-45071-80-6,40.2161897,-75.2387945,ARBOUR GREEN CIR & CLOVER LEAF LN;  MONTGOMERY; Station 345A; 2022-12-11 @ 16:32:27;,18936,11-12-22 16:32,MONTGOMERY,ARBOUR GREEN CIR & CLOVER LEAF LN,Greviously Injured,Medium,Collision with roadside objects,Office areas,2
10.42.0.151-47.88.68.21-42277-443-6,40.251523,-75.329557,NEWBURY WAY & DEAD END;  TOWAMENCIN; Station 345B; 2022-12-11 @ 16:40:08;,,11-12-22 16:40,TOWAMENCIN,NEWBURY WAY & DEAD END,Death,High,Vehicle with vehicle collision,Other,1
172.217.9.238-10.42.0.151-443-34171-6,40.1391298,-75.434163,SKYLINE DR & BETTIE LN;  LOWER PROVIDENCE; Station 322A; 2022-12-11 @ 16:44:11;,19403,11-12-22 16:44,LOWER PROVIDENCE,SKYLINE DR & BETTIE LN,Minor Injury,High,Vehicle with vehicle collision,Other,0
173.170.77.98-10.42.0.151-17398-43477-17,40.0222096,-75.2768064,OLD GULPH RD & MCCLENAGHAN MILL RD; LOWER MERION; 2022-12-11 @ 16:48:28-Station:STA26;,19096,11-12-22 16:48,LOWER MERION,OLD GULPH RD & MCCLENAGHAN MILL RD,Minor Injury,Medium,Collision with roadside objects,Residential areas,0
172.217.7.227-10.42.0.42-443-44292-6,40.2505919,-75.6744381,PRINCE ST; POTTSTOWN; 2022-12-11 @ 16:49:49-Station:STA69;,19464,11-12-22 16:49,POTTSTOWN,PRINCE ST,Greviously Injured,High,Vehicle with vehicle collision,Other,2
172.217.10.238-10.42.0.42-443-58338-6,40.1061366,-75.1427146,JENKINTOWN RD & ABINGTON AVE;  ABINGTON; Station 383; 2022-12-11 @ 16:47:33;,19038,11-12-22 16:47,ABINGTON,JENKINTOWN RD & ABINGTON AVE,Minor Injury,High,Vehicle with vehicle collision,Office areas,0
10.42.0.211-31.13.80.52-37932-443-6,40.1803086,-75.451949,2ND AVE & STINE DR;  COLLEGEVILLE; Station 324; 2022-12-11 @ 16:57:46;,19426,11-12-22 16:57,COLLEGEVILLE,2ND AVE & STINE DR,Death,Medium,Vehicle with vehicle collision,Office areas,1
10.42.0.151-58.63.236.212-49025-443-6,40.0083463,-75.2938805,ARDMORE AVE & W ATHENS AVE;  LOWER MERION; Station 313; 2022-12-11 @ 16:58:15;,19003,11-12-22 16:58,LOWER MERION,ARDMORE AVE & W ATHENS AVE,Minor Injury,High,Vehicle with vehicle collision,Other,0
172.217.10.131-10.42.0.42-443-46326-6,40.155827,-75.3652085,GERMANTOWN PIKE & BRIDLE PATH RD;  EAST NORRITON; Station 308B; 2022-12-11 @ 17:03:37;,19403,11-12-22 17:03,EAST NORRITON,GERMANTOWN PIKE & BRIDLE PATH RD,Death,Medium,Collision with pedestrians,Other,1
140.205.61.85-10.42.0.211-443-55720-6,40.3017291,-75.3189571,CHERRY LN;  SOUDERTON; Station 339; 2022-12-11 @ 17:02:29;,18964,11-12-22 17:02,SOUDERTON,CHERRY LN,Greviously Injured,Medium,Rollover,Other,2
10.42.0.211-10.42.0.1-30528-53-17,40.3017291,-75.3189571,CHERRY LN; SOUDERTON; 2022-12-11 @ 17:02:43-Station:STA74;,18964,11-12-22 17:02,SOUDERTON,CHERRY LN,Minor Injury,High,Vehicle with vehicle collision,Office areas,0
172.217.6.202-10.42.0.42-443-49438-6,40.3127104,-75.307659,CHERRY LN & S COUNTY LINE RD; SOUDERTON; 2022-12-11 @ 17:02:41;,18964,11-12-22 17:02,SOUDERTON,CHERRY LN & S COUNTY LINE RD,Greviously Injured,High,Vehicle with vehicle collision,Office areas,2
173.222.142.156-10.42.0.211-443-55024-6,40.3156427,-75.3313895,HARLEYSVILLE PIKE & E RELIANCE RD; SOUDERTON; 2022-12-11 @ 17:10:47;,18964,11-12-22 17:10,SOUDERTON,HARLEYSVILLE PIKE & E RELIANCE RD,Minor Injury,Medium,Vehicle with vehicle collision,Other,0
10.42.0.42-42.236.125.112-48504-80-6,40.03813,-75.258681,HAGYS FORD RD & CHERMAR LN;  LOWER MERION; Station 313; 2022-12-11 @ 17:07:52;,19072,11-12-22 17:07,LOWER MERION,HAGYS FORD RD & CHERMAR LN,Greviously Injured,High,Collision with roadside objects, Church areas,2
10.42.0.42-13.107.3.128-51560-443-6,40.0698321,-75.3162951,BLUEROUTE  & BALLIGOMINGO RD UNDERPASS; WEST CONSHOHOCKEN; 2022-12-11 @ 17:14:58;,,11-12-22 17:14,WEST CONSHOHOCKEN,BLUEROUTE  & BALLIGOMINGO RD UNDERPASS,Minor Injury,High,Vehicle with vehicle collision, Industrial areas,0
172.217.6.202-10.42.0.151-443-38436-6,40.1706264,-75.3642106,TROOPER RD & SPRING HILL RD; WORCESTER; 2022-12-11 @ 17:14:55;,19403,11-12-22 17:14,WORCESTER,TROOPER RD & SPRING HILL RD,Death,Medium,Rollover,Other,1
10.42.0.211-98.139.183.24-50061-443-6,40.0903967,-75.3957327,MALL BLVD & GODDARD BLVD; UPPER MERION; 2022-12-11 @ 17:11:53;,19406,11-12-22 17:11,UPPER MERION,MALL BLVD & GODDARD BLVD,Minor Injury,High,Collision with roadside objects,Other,0
10.42.0.211-104.119.40.238-35558-443-6,40.0091328,-75.2840693,LLANFAIR RD & E MONTGOMERY AVE; LOWER MERION; 2022-12-11 @ 17:13:14;,19003,11-12-22 17:13,LOWER MERION,LLANFAIR RD & E MONTGOMERY AVE,Death,High,Vehicle with vehicle collision,Office areas,1
10.42.0.1-10.42.0.42-53-15816-17,40.2212266,-75.2887369,LOUISE LN & DEAD END; UPPER GWYNEDD; 2022-12-11 @ 17:16:21-Station:STA80;,,11-12-22 17:16,UPPER GWYNEDD,LOUISE LN & DEAD END,Greviously Injured,Medium,Vehicle with vehicle collision,Other,2
172.217.12.202-10.42.0.151-443-57480-6,40.132899,-75.333714,LOGAN ST & MARKLEY ST;  NORRISTOWN; Station 308A; 2022-12-11 @ 17:19:10;,19401,11-12-22 17:19,NORRISTOWN,LOGAN ST & MARKLEY ST,Minor Injury,High,Vehicle with vehicle collision,  Recreational areas,0
172.217.12.162-10.42.0.211-443-37840-6,40.0792725,-75.1012585,VALLEY GLEN RD & GLEN WAY;  ABINGTON; Station 382; 2022-12-11 @ 17:17:08;,19027,11-12-22 17:17,ABINGTON,VALLEY GLEN RD & GLEN WAY,Minor Injury,Medium,Vehicle with vehicle collision,Other,0
10.42.0.211-10.42.0.1-57436-53-17,40.1734648,-75.3579084,N TROOPER RD; WORCESTER; 2022-12-11 @ 17:25:40-Station:STA83;,19403,11-12-22 17:25,WORCESTER,N TROOPER RD,Death,Medium,Vehicle with vehicle collision, Church areas,1
219.142.78.162-10.42.0.211-80-49169-6,40.125846,-75.195767,PENNSYLVANIA AVE & CAMP HILL RD; SPRINGFIELD; 2022-12-11 @ 17:25:18;,19034,11-12-22 17:25,SPRINGFIELD,PENNSYLVANIA AVE & CAMP HILL RD,Greviously Injured,High,Vehicle with vehicle collision,Residential areas,2
172.217.10.234-10.42.0.42-443-55741-6,40.0972222,-75.3761952,SCHUYLKILL EXPY & RT202 OVERPASS; UPPER MERION; 2022-12-11 @ 17:24:30;,,11-12-22 17:24,UPPER MERION,SCHUYLKILL EXPY & RT202 OVERPASS,Death,High,Collision with pedestrians,Office areas,1
172.217.10.227-10.42.0.151-443-35384-6,40.1807562,-75.1831301,WELSH RD & N LIMEKILN PIKE; UPPER DUBLIN; 2022-12-11 @ 17:25:24;,19044,11-12-22 17:25,UPPER DUBLIN,WELSH RD & N LIMEKILN PIKE,Minor Injury,Medium,Vehicle with vehicle collision,Other,0
203.205.158.63-10.42.0.151-80-36742-6,40.2290075,-75.3878525,RT422 BYP WB & RT100 UNDERPASS; CHESTER COUNTY; 2022-12-11 @ 17:26:23;,,11-12-22 17:26,CHESTER COUNTY,RT422 BYP WB & RT100 UNDERPASS,Minor Injury,High,Vehicle with vehicle collision,Office areas,0
10.42.0.151-36.110.210.167-50943-80-6,40.1198577,-75.3404954,JACOBY ST & CHURCH ST;  NORRISTOWN; Station 308A; 2022-12-11 @ 17:26:28;,19401,11-12-22 17:26,NORRISTOWN,JACOBY ST & CHURCH ST,Greviously Injured,High,Collision with roadside objects,Office areas,2
10.42.0.211-27.221.28.204-35675-80-6,40.1792254,-75.1805718,WELSH RD & NORRISTOWN RD; HORSHAM; 2022-12-11 @ 17:25:24;,19044,11-12-22 17:25,HORSHAM,WELSH RD & NORRISTOWN RD,Minor Injury,Medium,Vehicle with vehicle collision,Other,0
182.22.24.252-10.42.0.151-443-38591-6,40.1330371,-75.4084631,SHANNONDELL DR & SHANNONDELL BLVD;  LOWER PROVIDENCE; Station 322A; 2022-12-11 @ 17:31:04;,19403,11-12-22 17:31,LOWER PROVIDENCE,SHANNONDELL DR & SHANNONDELL BLVD,Death,High,Vehicle with vehicle collision,Residential areas,1
10.42.0.211-115.239.210.141-54372-443-6,40.0121627,-75.2624047,MONTGOMERY AVE & OLD GULPH RD; LOWER MERION; 2022-12-11 @ 17:32:42;,19072,11-12-22 17:32,LOWER MERION,MONTGOMERY AVE & OLD GULPH RD,Minor Injury,Medium,Vehicle with vehicle collision,  Recreational areas,0
172.217.10.104-10.42.0.211-443-53162-6,40.2593257,-75.2794631,MOYER RD & WIMBLEDON LN;  HATFIELD TOWNSHIP; Station 345; 2022-12-11 @ 17:38:47;,19440,11-12-22 17:38,HATFIELD TOWNSHIP,MOYER RD & WIMBLEDON LN,Death,Medium,Collision with roadside objects, Church areas,1
172.217.12.202-10.42.0.211-443-50637-6,40.1273963,-75.2585732,PEMBERTON RD & STENTON AVE;  WHITPAIN; Station 385; 2022-12-11 @ 17:37:59;,19462,11-12-22 17:37,WHITPAIN,PEMBERTON RD & STENTON AVE,Greviously Injured,High,Vehicle with vehicle collision,Other,2
10.42.0.1-10.42.0.42-53-21229-17,40.1166841,-75.3356813,SMITH ST & E OAK ST;  NORRISTOWN; Station 308A; 2022-12-11 @ 17:45:21;,19401,11-12-22 17:45,NORRISTOWN,SMITH ST & E OAK ST,Minor Injury,High,Vehicle with vehicle collision,Other,0
10.42.0.42-121.12.98.63-52357-80-6,40.1552833,-75.2642296,PENLLYN BLUE BELL PIKE & VILLAGE CIR;  WHITPAIN; Station 385; 2022-12-11 @ 17:43:01;,19422,11-12-22 17:43,WHITPAIN,PENLLYN BLUE BELL PIKE & VILLAGE CIR,Greviously Injured,Medium,Vehicle with vehicle collision,Other,2
172.217.17.99-10.42.0.42-443-52858-6,40.228451,-75.4862614,N TOWNSHIP LINE RD & MAYBERRY RD; PERKIOMEN; 2022-12-11 @ 17:44:16;,19473,11-12-22 17:44,PERKIOMEN,N TOWNSHIP LINE RD & MAYBERRY RD,Minor Injury,High,Vehicle with vehicle collision,Residential areas,0
10.42.0.211-72.30.3.43-47743-443-6,40.1135034,-75.1693171,MT CARMEL AVE & NORTH HILLS AVE; ABINGTON; 2022-12-11 @ 17:44:51;,19038,11-12-22 17:44,ABINGTON,MT CARMEL AVE & NORTH HILLS AVE,Greviously Injured,High,Vehicle with vehicle collision,School areas,2
